lat,lng,address,Place
22.0848844,83.9479637,"Tangarpali, Odisha, India","ABANKELA,TANGARPALI,SUNDERGARH,Odisha"
24.0357114,84.47763719999999,"Panki, Jharkhand 822122, India","ABUN,PANKI,PALAMU,Jharkhand"
27.144913,82.2805292,"Rehra Bazar, Rudhuali, Uttar Pradesh 271307, India","ACHALPUR CHAUDHARY,REHRA BAZAR,BALRAMPUR,Uttar Pradesh"
27.5181738,82.64614189999999,"Pachperwa, Uttar Pradesh 271206, India","ADAMTARA,PACHPERWA,BALRAMPUR,Uttar Pradesh"
23.8857299,83.9559036,"Horanda Alias Ramgarh, Jharkhand 822132, India","ADAR,RAMGARH,PALAMU,Jharkhand"
27.2984296,82.7468511,"Ahirauli, Uttar Pradesh 272192, India","AHIRAULI,GAINSARI,BALRAMPUR,Uttar Pradesh"
27.614978,82.372422,"Room no 53 Ratanpur Post Nakiniya Thana Ajabnagar, Tulsipur, Uttar Pradesh 271208, India","AJABNAGAR RATANPUR,TULSIPUR,BALRAMPUR,Uttar Pradesh"
27.6377845,82.29905839999999,"Harraiya Satgharwa, Uttar Pradesh 271208, India","AKBERPUR KALAN,HARAIYA SATGHARWA,BALRAMPUR,Uttar Pradesh"
19.2442214,83.4310031,"Amalabhata, Odisha 765017, India","AMALABHATA,TENTULIKHUNTI,NABARANGPUR,Odisha"
20.194033,83.51696129999999,"Madanpur Rampur, Odisha 766102, India","AMBAGAON,M.RAMPUR,KALAHANDI,Odisha"
20.4391269,83.344206,"Saintala, Odisha 767032, India","AMBAPALI,SAINTALA,BOLANGIR,Odisha"
27.6377845,82.29905839999999,"Harraiya Satgharwa, Uttar Pradesh 271208, India","AMBER NAGAR,HARAIYA SATGHARWA,BALRAMPUR,Uttar Pradesh"
22.5075703,85.3769159,"Goilkera, Jharkhand 833103, India","AMRAI,GOELKERA,PASHCHIMI SINGHBHUM,Jharkhand"
24.3733078,84.1929949,"Bara, Palamu, NH-98, Aurangabad, Road, Chhatarpur, Jharkhand 822113, India","AMVA SAH TOLA,CHHATARPUR,PALAMU,Jharkhand"
27.3159844,82.41703780000002,"Amwa Deoria, Uttar Pradesh 271604, India","AMWA,HARAIYA SATGHARWA,BALRAMPUR,Uttar Pradesh"
22.2132074,85.87676739999999,"Kumardungi, Jharkhand 833214, India","ANDHARI,KUMARDUNGI,PASHCHIMI SINGHBHUM,Jharkhand"
22.452488,85.9443553,"Tantnagar, Jharkhand 833204, India","ANGARDIHA,TANTNAGAR,PASHCHIMI SINGHBHUM,Jharkhand"
22.6444925,85.8079675,"Unnamed Road, Pandrasali, Matkobera, Jharkhand 833101, India","ANJED BERA,KHUNTPANI,PASHCHIMI SINGHBHUM,Jharkhand"
24.3746769,84.1936203,"Chhatarpur, Jharkhand 822113, India","ARAR,CHHATARPUR,PALAMU,Jharkhand"
26.7960068,85.5631398,"Araria, Bihar 843330, India","ARARIA,SONBARSA,SITAMARHI,Bihar"
21.9228385,85.8652559,"Sukruli, Odisha 757039, India","ARJUNBILLA,SUKRULI,MAYURBHANJ,Odisha"
24.2397596,86.83940729999999,"Sarath, Jharkhand 814149, India","BABANDIHA,SARATH,DEOGHAR,Jharkhand"
24.3733078,84.1929949,"Bara, Palamu, NH-98, Aurangabad, Road, Chhatarpur, Jharkhand 822113, India","BABHANDI,CHHATARPUR,PALAMU,Jharkhand"
27.1830686,82.2765909,"PRATHMIK KENDRA, near BLOCK, Rehra Bazar, Rehra, Uttar Pradesh 271306, India","BABHANPURWA,REHRA BAZAR,BALRAMPUR,Uttar Pradesh"
27.3009504,82.4630904,"Babhni Buzurg, Uttar Pradesh 271604, India","BABHNI BUZURG,UTRAULA,BALRAMPUR,Uttar Pradesh"
24.0376814,84.2094347,"Lesliganj, Jharkhand 822118, India","BABUDUMBI,LESLIGANJ,PALAMU,Jharkhand"
26.7028183,85.6258268,"Baburban, Bihar 843324, India","BABURBAN,PARIHAR,SITAMARHI,Bihar"
26.5614145,85.6100773,"Bazpatti, Bihar 843314, India","BABURBAN,BAJPATTI,SITAMARHI,Bihar"
21.8527378,84.7805097,"Gurundia, Odisha 770043, India","BAD TURAMURA,GURUNDIA,SUNDERGARH,Odisha"
27.5120117,82.6419317,"Pachperwa, Uttar Pradesh 271206, India","BADAHARA,PACHPERWA,BALRAMPUR,Uttar Pradesh"
18.9205415,82.4996398,"Badajiuna, Odisha 764002, India","BADAJIUNA,JEYPORE,KORAPUT,Odisha"
20.5359137,83.5523205,"Badbahal, Odisha 767067, India","BADBAHAL,DEOGAON,BOLANGIR,Odisha"
22.028232,86.9448841,"Suliapada, Odisha 757022, India","BADDHENKIA,SULIAPADA,MAYURBHANJ,Odisha"
19.8204684,82.7220253,"Kalahandi, Odisha 766015, India","BADGHUMER,DHARAMGARH,KALAHANDI,Odisha"
18.5319475,82.4481944,"Badigada, Odisha, India","BADIGADA,LAMTAPUT,KORAPUT,Odisha"
22.2504728,86.2501429,"Badjharan, Odisha, India","BADJHARAN,BIJATOLA,MAYURBHANJ,Odisha"
24.3723115,84.1963695,"Bagaiya Rd, Chhatarpur, Jharkhand 822113, India","BAGAIYA,CHHATARPUR,PALAMU,Jharkhand"
26.7582339,85.5071469,"Bagaha, Bihar, India","BAGHA,SONBARSA,SITAMARHI,Bihar"
26.3726481,85.4927026,"Runni Saidpur Madhya, Bihar, India","BAGHARI,RUNNI SAIDPUR,SITAMARHI,Bihar"
24.3746769,84.1936203,"Chhatarpur, Jharkhand 822113, India","BAGHMARA,CHHATARPUR,PALAMU,Jharkhand"
27.6227174,82.03254009999999,"Bahadurpur, Uttar Pradesh 271831, India","BAHADUR PUR,BALRAMPUR,BALRAMPUR,Uttar Pradesh"
27.5856724,82.1496049,"bahadurganj bazar Bahadurganj bazar, Bajar Dih, Uttar Pradesh 271861, India","BAHADURGANJ,HARAIYA SATGHARWA,BALRAMPUR,Uttar Pradesh"
20.7175821,83.51301769999999,"Puintala, Odisha 767001, India","BAHALPADAR,PUINTALA,BOLANGIR,Odisha"
24.5016409,83.947225,"Bahera Rd, Jharkhand, India","BAHERA,HAIDARNAGAR,PALAMU,Jharkhand"
26.7994224,84.6204403,"Majhaulia, Bihar 845454, India","BAITHANIA,MAJHAULIA,PASHCHIM CHAMPARAN,Bihar"
26.5614145,85.6100773,"Bazpatti, Bihar 843314, India","BAKHRI USUFPUR,BAJPATTI,SITAMARHI,Bihar"
24.0413657,84.06268790000001,"Sarvodaya Nagar, Daltonganj, Jharkhand 822101, India","BAKOIYA,DALTONGANJ,PALAMU,Jharkhand"
26.8651447,84.34763210000001,"Jogapatti, Bihar 845452, India","BAKUCHIA RUDALPUR,JOGAPATTI,PASHCHIM CHAMPARAN,Bihar"
27.243445,84.0299601,"Sidhaw, Bihar 845101, India","BAKULI,BAGAHA-II (SIDHAW),PASHCHIM CHAMPARAN,Bihar"
22.1834413,84.7367799,"Balanda, Odisha 770031, India","BALANDA,LATHIKATA,SUNDERGARH,Odisha"
26.4698688,85.69741239999999,"Pupri, Bihar, India","BALHA,PUPRI,SITAMARHI,Bihar"
26.5406771,85.7025453,"Balha Manorath, Bihar 843320, India","BALHA MANORATH,BAJPATTI,SITAMARHI,Bihar"
24.0423161,84.4553335,"Tarwadih, Jharkhand 822122, India","BALMUA,PANKI,PALAMU,Jharkhand"
26.9030862,84.3423734,"Balua Dew Ray, Bihar 845451, India","BALUA DEW RAY,JOGAPATTI,PASHCHIM CHAMPARAN,Bihar"
23.8426337,83.9902982,"Banalat, Jharkhand, India","BANALAT,RAMGARH,PALAMU,Jharkhand"
26.7728914,85.5997931,"Bandarjhula, Bihar 843330, India","BANDARJHULA,SONBARSA,SITAMARHI,Bihar"
19.6140313,82.8869919,"Kalampur, Odisha 766013, India","BANDHAKANA,KALAMPUR,KALAHANDI,Odisha"
19.7751652,82.9138487,"Banijora, Odisha 766014, India","BANIJARA,JUNAGARH,KALAHANDI,Odisha"
20.2585202,83.23320199999999,"Banjipadar, Odisha, India","BANJIPADAR,TITILAGARH,BOLANGIR,Odisha"
27.6377845,82.29905839999999,"Harraiya Satgharwa, Uttar Pradesh 271208, India","BANKATWA BAZAR,HARAIYA SATGHARWA,BALRAMPUR,Uttar Pradesh"
24.0989977,84.3844304,"Banki Khurd, Jharkhand 822122, India","BANKI KHURD,PANKI,PALAMU,Jharkhand"
22.768222,85.60750639999999,"Bankitapi, Jharkhand 833102, India","BANKITAPI,CHAKRADHARPUR,PASHCHIMI SINGHBHUM,Jharkhand"
24.2302482,84.40587900000001,"Manatu, Jharkhand 822113, India","BANSI KHURD,MANATU,PALAMU,Jharkhand"
24.2345989,86.8383485,"Sarath, Jharkhand 814149, India","BARA,SARATH,DEOGHAR,Jharkhand"
24.4924798,86.6999609,"Shankar Rd, Shivganga Muhalla, Deoghar, Jharkhand 814112, India","BARADHOWANA,DEOGHAR,DEOGHAR,Jharkhand"
22.6813546,85.20384419999999,"Rajgaon, Jharkhand 833103, India","BARAKESAL,GUDRI,PASHCHIMI SINGHBHUM,Jharkhand"
22.2918877,85.5869352,"Barapaseya, Jharkhand 833218, India","BARAPASEYA,NOAMUNDI,PASHCHIMI SINGHBHUM,Jharkhand"
20.7220096,83.33752439999999,"Barapudugia, Odisha 767024, India","BARAPUDGIA,BALANGIR,BOLANGIR,Odisha"
27.3393487,82.41703780000002,"Barayal, Uttar Pradesh 271604, India","BARAYAL,UTRAULA,BALRAMPUR,Uttar Pradesh"
24.5246418,84.2844961,"Pipra, Jharkhand 822131, India","BARDAAG,PIPRA,PALAMU,Jharkhand"
27.5625723,82.3099154,"Bardahwa, Uttar Pradesh 271208, India","BARDAHWA,TULSIPUR,BALRAMPUR,Uttar Pradesh"
27.5362044,82.394891,"Harraiya - Amari Rd, DEVIPATAN, Tulsipur, Uttar Pradesh 271208, India","BARGADAHI,TULSIPUR,BALRAMPUR,Uttar Pradesh"
26.3726481,85.4927026,"Runni Saidpur Madhya, Bihar, India","BARHETA,RUNNI SAIDPUR,SITAMARHI,Bihar"
22.2132074,85.87676739999999,"Kumardungi, Jharkhand 833214, India","BARUSAI,KUMARDUNGI,PASHCHIMI SINGHBHUM,Jharkhand"
27.1067723,84.5615274,"Barwa, Bihar 845306, India","BARWA,MAINATAND,PASHCHIM CHAMPARAN,Bihar"
27.1965012,84.20284579999999,"Barwa, Bihar, India","BARWA,BAGAHA-I,PASHCHIM CHAMPARAN,Bihar"
24.4732471,83.9519338,"Barwadih, Jharkhand 822115, India","BARWADIH,HAIDARNAGAR,PALAMU,Jharkhand"
27.5246311,82.4156829,"Tulsipur, Uttar Pradesh, India","BASANT PUR,TULSIPUR,BALRAMPUR,Uttar Pradesh"
27.4386533,82.6078205,"Basantpur, Uttar Pradesh 271215, India","BASANTPUR,PACHPERWA,BALRAMPUR,Uttar Pradesh"
27.5917355,82.3099154,"Basantpur, Uttar Pradesh 271208, India","BASANTPUR,HARAIYA SATGHARWA,BALRAMPUR,Uttar Pradesh"
24.0861938,84.3988806,"Basariya, Jharkhand 822122, India","BASARIYA,PANKI,PALAMU,Jharkhand"
27.2002641,82.30981000000001,"Basawan Bankat, Uttar Pradesh 271306, India","BASAWAN BANKAT,REHRA BAZAR,BALRAMPUR,Uttar Pradesh"
24.3371312,83.9519338,"Basdiha, Jharkhand, India","BASDIHA,PANDU,PALAMU,Jharkhand"
24.2775877,84.1023541,"Palamu, Jharkhand 822113, India","BASNA,NAWA BAZAR,PALAMU,Jharkhand"
26.5316451,85.7948524,"Charaut, Bihar 843319, India","BASOTRA,CHORAUT,SITAMARHI,Bihar"
22.8669028,85.3276724,"National Highway 75, Bandgaon, Jharkhand 835216, India","BASTAMPADA,BANDGAON,PASHCHIMI SINGHBHUM,Jharkhand"
27.2284383,84.01191209999999,"Batesara More Bus Stop, NH 28B, Badgaha - Triveni Road, Bagaha Dhala Rd, Batsara, Bihar 845101, India","BATESARA,PASHCHIM CHAMPARAN,Bihar"
26.6912716,84.42448809999999,"Bathna, Bihar 845459, India","BATHNA,BAIRIA,PASHCHIM CHAMPARAN,Bihar"
26.8333401,85.6631467,"Bathuara Rd, Bihar, India","BATHUARA,PARIHAR,SITAMARHI,Bihar"
26.4372907,85.6553634,"Rasulganj urf Koili, Bihar 843333, India","BATHULI,NANPUR,SITAMARHI,Bihar"
27.6377845,82.29905839999999,"Harraiya Satgharwa, Uttar Pradesh 271208, India","BEERPUR,HARAIYA SATGHARWA,BALRAMPUR,Uttar Pradesh"
21.9681522,86.0758979,"Jashipur, Odisha 757034, India","BEGUNIA,JASHIPUR,MAYURBHANJ,Odisha"
26.4409294,85.6653206,"Nanpur, Bihar 843333, India","BELA BAHADURPUR,NANPUR,SITAMARHI,Bihar"
27.6377845,82.29905839999999,"Harraiya Satgharwa, Uttar Pradesh 271208, India","BELBHARIYA,HARAIYA SATGHARWA,BALRAMPUR,Uttar Pradesh"
22.2397864,84.74012689999999,"Beldihi, Odisha, India","BELDIHI,LATHIKATA,SUNDERGARH,Odisha"
24.368955,84.0458176,"Belhara, Jharkhand 822120, India","BELHARA,PANDU,PALAMU,Jharkhand"
27.5787228,82.3912892,"Beli Kalan, Uttar Pradesh, India","BELI,TULSIPUR,BALRAMPUR,Uttar Pradesh"
20.1924445,83.50889389999999,"Madanpur Rampur, Odisha 766102, India","BELUR ,M.RAMPUR,KALAHANDI,Odisha"
22.6840627,85.2114218,"Gudri, Jharkhand 833103, India","BERA KAYAM,GUDRI,PASHCHIMI SINGHBHUM,Jharkhand"
27.5181738,82.64614189999999,"Pachperwa, Uttar Pradesh 271206, India","BETHANIYA,PACHPERWA,BALRAMPUR,Uttar Pradesh"
27.4309019,82.1805869,"Motisagar, Balrampur, Uttar Pradesh 271201, India","BETHUIYA DIMUN JOT,BALRAMPUR,BALRAMPUR,Uttar Pradesh"
26.4409294,85.6653206,"Nanpur, Bihar 843333, India","BHADIAN,NANPUR,SITAMARHI,Bihar"
27.6874326,82.3533266,"Bhadwar, Uttar Pradesh 271208, India","BHADWAR,HARAIYA SATGHARWA,BALRAMPUR,Uttar Pradesh"
27.6377845,82.29905839999999,"Harraiya Satgharwa, Uttar Pradesh 271208, India","BHAGTA,HARAIYA SATGHARWA,BALRAMPUR,Uttar Pradesh"
26.6232961,84.4330214,"Bhagwanpur, Bihar, India","BHAGWANPUR,NAUTAN,PASHCHIM CHAMPARAN,Bihar"
27.5246311,82.4156829,"Tulsipur, Uttar Pradesh, India","BHAGWANPUR,TULSIPUR,BALRAMPUR,Uttar Pradesh"
27.5181738,82.64614189999999,"Pachperwa, Uttar Pradesh 271206, India","BHAISAHWA,PACHPERWA,BALRAMPUR,Uttar Pradesh"
24.011366,84.25816950000001,"Bhalmanda, Jharkhand 822118, India","BHALMANDA,LESLIGANJ,PALAMU,Jharkhand"
26.8232476,85.5412645,"Bhaluaha, Bihar, India","BHALUAHA,SONBARSA,SITAMARHI,Bihar"
21.8096956,85.8471881,"Chitrapasi, Karanjia - Khiching Rd, Chadeibhol, Odisha 757037, India","BHALUGODA (CHITRAPOSI),KARANJIA,MAYURBHANJ,Odisha"
27.5246311,82.4156829,"Tulsipur, Uttar Pradesh, India","BHALUIYA,TULSIPUR,BALRAMPUR,Uttar Pradesh"
19.7174914,82.3736663,"Jharigaon, Odisha 764076, India","BHALUKONADI,JHARIGAM,NABARANGPUR,Odisha"
26.7994224,84.6204403,"Majhaulia, Bihar 845454, India","BHANA CHAK,MAJHAULIA,PASHCHIM CHAMPARAN,Bihar"
22.3247374,84.06894489999999,"Village Rd, Sankara, Odisha 770014, India","BHANDARISANKARA,BALISANKARA,SUNDERGARH,Odisha"
26.9806515,84.1224036,"Madhubani Block, Bihar, India","BHANDARWA KALAN,MADHUBANI,PASHCHIM CHAMPARAN,Bihar"
27.6265722,82.4129729,"Bhangha Kalan, Uttar Pradesh 271208, India","BHANGAHA KALAN,TULSIPUR,BALRAMPUR,Uttar Pradesh"
26.5316451,85.7948524,"Charaut, Bihar 843319, India","BHANTA WARI,CHORAUT,SITAMARHI,Bihar"
24.5421988,84.2792317,"Hariharganj, Jharkhand, India","BHANWAR,HARIHARGANJ,PALAMU,Jharkhand"
20.6776753,83.5363359,"Bharatbahal, Odisha 767002, India","BHARATBAHAL,PATNAGARH,BOLANGIR,Odisha"
27.0315229,84.58771829999999,"Bharbharwa, Bihar 845307, India","BHARBHARWA,MAINATAND,PASHCHIM CHAMPARAN,Bihar"
27.6377845,82.29905839999999,"Harraiya Satgharwa, Uttar Pradesh 271208, India","BHARPUR CHETIYA,HARAIYA SATGHARWA,BALRAMPUR,Uttar Pradesh"
27.6377845,82.29905839999999,"Harraiya Satgharwa, Uttar Pradesh 271208, India","BHATPURWA,HARAIYA SATGHARWA,BALRAMPUR,Uttar Pradesh"
26.8651447,84.34763210000001,"Jogapatti, Bihar 845452, India","BHAWANIPUR-2,JOGAPATTI,PASHCHIM CHAMPARAN,Bihar"
26.7837179,85.6927335,"Bhiswa Rd, Bihar, India","BHISWA,PARIHAR,SITAMARHI,Bihar"
23.3722255,84.84897389999999,"Bhitha, Jharkhand 835325, India","BHITHA,PIPRA,PALAMU,Jharkhand"
27.6565068,82.2949866,"Lauki Kalan, Uttar Pradesh 271208, India","BHITWARIYA KALAN,HARAIYA SATGHARWA,BALRAMPUR,Uttar Pradesh"
21.8837267,86.9041685,"Mohanpur, Odisha 757018, India","BHOLGHATI,MORADA,MAYURBHANJ,Odisha"
27.5290248,82.4042298,"Orajhar, Uttar Pradesh 271210, India","BHUJEHRA,TULSIPUR,BALRAMPUR,Uttar Pradesh"
22.7602892,85.6986957,"Bhujusai, Jharkhand 833102, India","BHUJUSAI,CHAKRADHARPUR,PASHCHIMI SINGHBHUM,Jharkhand"
27.5120117,82.6419317,"Pachperwa, Uttar Pradesh 271206, India","BHUKURWA,PACHPERWA,BALRAMPUR,Uttar Pradesh"
27.5469986,82.1360026,"Bhusailia, Uttar Pradesh 271861, India","BHUSAILIYA,HARAIYA SATGHARWA,BALRAMPUR,Uttar Pradesh"
26.584391,85.7371793,"Bhutha, Bihar, India","BHUTHA,CHORAUT,SITAMARHI,Bihar"
24.0775497,84.52877219999999,"Bidra, Jharkhand 822122, India","BIDRA,PANKI,PALAMU,Jharkhand"
19.0517161,82.5486131,"Borigumma, Odisha 764056, India","BIJAPUR,BORIGUMMA,KORAPUT,Odisha"
24.0357114,84.47763719999999,"Panki, Jharkhand 822122, India","BIRBIR,PANKI,PALAMU,Jharkhand"
22.6840627,85.2114218,"Gudri, Jharkhand 833103, India","BIRKEL,GUDRI,PASHCHIMI SINGHBHUM,Jharkhand"
22.0846875,84.85549,"Birkera, Odisha 770037, India","BIRKERA,LATHIKATA,SUNDERGARH,Odisha"
21.6350567,86.93987589999999,"Bishnupur, Odisha, India","BISHNUPUR,BETNOTI,MAYURBHANJ,Odisha"
26.8963458,84.54449699999999,"Bishunpur Raghunath, Bihar 845450, India","BISHUNPUR RAGHUNATH,CHANPATIA,PASHCHIM CHAMPARAN,Bihar"
26.7190047,85.5689288,"Bishunpur Gonahi, Bihar, India","BISHUNPUR URF GONAHI,SONBARSA,SITAMARHI,Bihar"
19.1404296,82.318057,"Kotapad, Odisha 764058, India","BOBIYA,KOTPAD,KORAPUT,Odisha"
24.2345989,86.8383485,"Sarath, Jharkhand 814149, India","BOCHBANDH,SARATH,DEOGHAR,Jharkhand"
23.9268683,84.2568529,"Satbarwa, Jharkhand 822126, India","BOHITA,SATBARWA,PALAMU,Jharkhand"
22.5474364,85.8025373,"Chaibasa, Jharkhand 833201, India","BOROI,GOELKERA,PASHCHIMI SINGHBHUM,Jharkhand"
21.8146063,84.9648484,"Brahmangaon, Odisha, India","BRAHMANGAON,LAHUNIPARA,SUNDERGARH,Odisha"
26.4372907,85.6553634,"Rasulganj urf Koili, Bihar 843333, India","BRHAMAUL,NANPUR,SITAMARHI,Bihar"
22.1570265,86.52929859999999,"Similipal Khairi Resort, near check point on NH6, Bangriposi, Odisha 757032, India","BUDAMORA,BANGRIPOSI,MAYURBHANJ,Odisha"
20.8976958,83.52068039999999,"Budhipadar, Odisha 767020, India","BUDHIPADAR,LOISINGHA,BOLANGIR,Odisha"
26.3726481,85.4927026,"Runni Saidpur Madhya, Bihar, India","BULANDPUR URF HUSAINPUR,RUNNI SAIDPUR,SITAMARHI,Bihar"
20.8444298,83.3976335,"Buromunda, Odisha 767065, India","BUROMUNDA,LOISINGHA,BOLANGIR,Odisha"
22.5075703,85.3769159,"Goilkera, Jharkhand 833103, India","BURUDUYA,GOELKERA,PASHCHIMI SINGHBHUM,Jharkhand"
20.2865154,84.478293,"Chakapada, Odisha 762028, India","CHAHALI,CHAKAPAD,KANDHAMAL,Odisha"
27.531921,82.418326,"Titu Cplx, Bypass Rd, Tulsipur, Gonda, Balrampur, Uttar Pradesh 271208, India","CHAINPUR BARERIYA,TULSIPUR,BALRAMPUR,Uttar Pradesh"
24.106759,84.2739668,"Chhaknadih, Jharkhand 822113, India","CHAKNADIH,TARHASI,PALAMU,Jharkhand"
22.8669028,85.3276724,"National Highway 75, Bandgaon, Jharkhand 835216, India","CHAMPAWA,BANDGAON,PASHCHIMI SINGHBHUM,Jharkhand"
27.1683844,84.1606601,"Chamwalia, Bihar 845101, India","CHAMWALIA,BAGAHA-II (SIDHAW),PASHCHIM CHAMPARAN,Bihar"
20.4684665,83.0334524,"Chanabahal, Odisha, India","CHANABAHAL,MURIBAHAL,BOLANGIR,Odisha"
24.0448304,84.43269320000002,"Chanderpur, Jharkhand 822122, India","CHANDERPUR,PANKI,PALAMU,Jharkhand"
24.0448304,84.43269320000002,"Chanderpur, Jharkhand 822122, India","CHANDRAPUR,PANKI,PALAMU,Jharkhand"
24.482819,86.5829699,"Chapariya, Jharkhand 814152, India","CHAPARIYA,DEOGHAR,DEOGHAR,Jharkhand"
24.5246418,84.2844961,"Pipra, Jharkhand 822131, India","CHAPARWAR,PIPRA,PALAMU,Jharkhand"
27.531921,82.418326,"Titu Cplx, Bypass Rd, Tulsipur, Gonda, Balrampur, Uttar Pradesh 271208, India","CHAUHATTER KALAN,TULSIPUR,BALRAMPUR,Uttar Pradesh"
27.5322557,82.1074293,"Chauka Kalan, Uttar Pradesh, India","CHAUKAKALAN,HARAIYA SATGHARWA,BALRAMPUR,Uttar Pradesh"
26.4409294,85.6653206,"Nanpur, Bihar 843333, India","CHAUPAR KHURD,NANPUR,Bihar"
24.3005874,84.1144854,"Chengwana, Jharkhand 822113, India","CHENGWANA,CHHATARPUR,PALAMU,Jharkhand"
24.202349,84.1778016,"Patan, Jharkhand 822123, India","CHETMA,PATAN,PALAMU,Jharkhand"
19.8864697,82.0727726,"Raighar, Odisha 764074, India","CHHATABEDA,RAIGHAR,NABARANGPUR,Odisha"
27.1830686,82.2765909,"PRATHMIK KENDRA, near BLOCK, Rehra Bazar, Rehra, Uttar Pradesh 271306, India","CHHITALU PUR,REHRA BAZAR,BALRAMPUR,Uttar Pradesh"
22.4672158,85.9310225,"Roladi, Jharkhand 833204, India","CHHOTA KOYTA,TANTNAGAR,PASHCHIMI SINGHBHUM,Jharkhand"
24.3746769,84.1936203,"Chhatarpur, Jharkhand 822113, India","CHILHO KALA,CHHATARPUR,PALAMU,Jharkhand"
26.8337869,85.5734088,"Sitamarhi, Bihar, India","CHILRA,SONBARSA,SITAMARHI,Bihar"
24.3746769,84.1936203,"Chhatarpur, Jharkhand 822113, India","CHIRU,CHHATARPUR,PALAMU,Jharkhand"
22.6765454,85.62549969999999,"Chakradharpur, Jharkhand 833102, India","CHITPIL,CHAKRADHARPUR,PASHCHIMI SINGHBHUM,Jharkhand"
26.9988868,84.1026062,"Madhubani, Bihar 845104, India","CHIURAHI,MADHUBANI,PASHCHIM CHAMPARAN,Bihar"
24.4920142,83.9434356,"Haidar Nagar Rd, Haidar Nagar, Jharkhand 822115, India","CHOKDI,HAIDARNAGAR,PALAMU,Jharkhand"
23.8916803,84.03260329999999,"Chorhat, Jharkhand, India","CHORHAT,RAMGARH,PALAMU,Jharkhand"
26.4409294,85.6653206,"Nanpur, Bihar 843333, India","CHOTA BHADIAN,NANPUR,SITAMARHI,Bihar"
24.0357114,84.47763719999999,"Panki, Jharkhand 822122, India","CHOUBAN TAND,PANKI,PALAMU,Jharkhand"
23.6621151,85.50840029999999,"Ranchi Rd -Sail- Naisarai Rd, Ramgarh Cantonment, Jharkhand 829117, India","CHOUPARIA,RAMGARH,PALAMU,Jharkhand"
24.3733078,84.1929949,"Bara, Palamu, NH-98, Aurangabad, Road, Chhatarpur, Jharkhand 822113, India","CHOWKHDA,CHHATARPUR,PALAMU,Jharkhand"
22.4112236,85.765722,"Jhinkpani, Jorapokhar, Jharkhand 833215, India","CHOYA,JHINKPANI,PASHCHIMI SINGHBHUM,Jharkhand"
23.8851314,84.0933652,"Bansdih Khurd, Jharkhand, India","CHUNGA BANSDIH KHURD,RAMGARH,PALAMU,Jharkhand"
26.5947125,85.4841371,"Bari Bazar Rd, Mirchai Patti, Sitamarhi, Bihar 843302, India","COURT BAZAR WD 24,DUMRA,SITAMARHI,Bihar"
27.4588592,82.2284471,"Dakahi, Uttar Pradesh 271201, India","DAKAHI,BALRAMPUR,BALRAMPUR,Uttar Pradesh"
24.3380571,83.9195036,"Dala khurd, Jharkhand 822120, India","DALA KHURD,PANDU,PALAMU,Jharkhand"
26.8204063,85.61521859999999,"Dalakwa Dalki, Bihar 843330, India","DALAKWA DALKI,SONBARSA,SITAMARHI,Bihar"
19.6865174,82.6773714,"Dalguma, Odisha 766019, India","DALGUMA,KOKSARA,KALAHANDI,Odisha"
22.2236631,84.7863813,"Dandiapali, Rourkela, Odisha, India","DANDIAPALI,LATHIKATA,SUNDERGARH,Odisha"
24.3733078,84.1929949,"Bara, Palamu, NH-98, Aurangabad, Road, Chhatarpur, Jharkhand 822113, India","DANDTUTA,CHHATARPUR,PALAMU,Jharkhand"
18.9786148,82.3316244,"Dangarapalli, Odisha 764002, India","DANGARAPALLI,KUNDRA,KORAPUT,Odisha"
22.6840627,85.2114218,"Gudri, Jharkhand 833103, India","DARIO,GUDRI,PASHCHIMI SINGHBHUM,Jharkhand"
26.3726481,85.4927026,"Runni Saidpur Madhya, Bihar, India","DASAIN,RUNNI SAIDPUR,SITAMARHI,Bihar"
19.1733835,82.5038391,"Dengapadar, Odisha 764056, India","DENGAPADAR,BORIGUMMA,KORAPUT,Odisha"
20.714729,83.48989859999999,"Gandhi Nagar Para, Balangir, Odisha 767001, India","DEOGAON,SAINTALA,BOLANGIR,Odisha"
26.3726481,85.4927026,"Runni Saidpur Madhya, Bihar, India","DEONA BUZURG,RUNNI SAIDPUR,SITAMARHI,Bihar"
27.1641788,84.32901389999999,"Ramnagar, Bihar 845106, India","DEULIYA,RAMNAGAR,PASHCHIM CHAMPARAN,Bihar"
19.7459639,82.8492538,"Deundi, Odisha 766023, India","DEUNDI,JUNAGARH,KALAHANDI,Odisha"
27.1179352,82.4021319,"Deoria Inayat, Uttar Pradesh, India","DEVARIYA INAYAT,REHRA BAZAR,BALRAMPUR,Uttar Pradesh"
22.3650858,85.4375574,"West Singhbhum, Jharkhand, India","DEVJHARI,HATGAMAHARIA,PASHCHIMI SINGHBHUM,Jharkhand"
27.6377845,82.29905839999999,"Harraiya Satgharwa, Uttar Pradesh 271208, India","DEVPURA,HARAIYA SATGHARWA,BALRAMPUR,Uttar Pradesh"
27.1277761,84.6505281,"Dewalia, Bihar 845306, India","DEWALIA,MAINATAND,PASHCHIM CHAMPARAN,Bihar"
22.6840627,85.2114218,"Gudri, Jharkhand 833103, India","DEWAN,GUDRI,PASHCHIMI SINGHBHUM,Jharkhand"
27.4277007,82.1719438,"MDR 10E, near Zilla Panchayat Office, Balrampur, Uttar Pradesh 271201, India","DEWRANWAN,BALRAMPUR,BALRAMPUR,Uttar Pradesh"
27.2686661,84.0722375,"Devariya, Bihar, India","DEWRIYA,BAGAHA-II (SIDHAW),PASHCHIM CHAMPARAN,Bihar"
19.6633941,82.8936695,"Deypur, Odisha 766017, India","DEYPUR,KALAMPUR,KALAHANDI,Odisha"
24.4901894,84.23446570000002,"Dhab Kalan, Jharkhand 822113, India","DHAB KALA,HARIHARGANJ,PALAMU,Jharkhand"
22.1553,86.5416,"Bangriposi, Mayurbhanj, NH-6, Hajira Culcutta Highway, Baripada, Baripada, Odisha 757033, India","DHABANISOLE,BANGRIPOSI,MAYURBHANJ,Odisha"
26.8651447,84.34763210000001,"Jogapatti, Bihar 845452, India","DHABELWA,JOGAPATTI,PASHCHIM CHAMPARAN,Bihar"
24.3351215,83.9016266,"Dhachabar, Jharkhand 822120, India","DHACHAWAR,PANDU,PALAMU,Jharkhand"
27.6377845,82.29905839999999,"Harraiya Satgharwa, Uttar Pradesh 271208, India","DHAMA CHAURI,HARAIYA SATGHARWA,BALRAMPUR,Uttar Pradesh"
19.511413,82.3587511,"Dhamanaguda, Odisha 764072, India","DHAMANAGUDA,JHARIGAM,NABARANGPUR,Odisha"
27.5181738,82.64614189999999,"Pachperwa, Uttar Pradesh 271206, India","DHAMAULI,PACHPERWA,BALRAMPUR,Uttar Pradesh"
26.8019706,85.6370637,"Dhanaha, Bihar 843330, India","DHANAHA,PARIHAR,SITAMARHI,Bihar"
27.5595324,82.28141219999999,"Dhanaura, Uttar Pradesh 271208, India","DHANAURA,TULSIPUR,BALRAMPUR,Uttar Pradesh"
27.5960695,82.0761215,"Dhanghata, Uttar Pradesh 271861, India","DHANGHATA MURTIHWA,HARAIYA SATGHARWA,BALRAMPUR,Uttar Pradesh"
27.2293342,82.44887159999999,"Dhaurahra, Uttar Pradesh 271604, India","DHAURAHRI,TULSIPUR,BALRAMPUR,Uttar Pradesh"
23.9120796,83.9479637,"Dhawa, Jharkhand 822132, India","DHAWA,RAMGARH,PALAMU,Jharkhand"
24.0433792,84.4780129,"Dhub Rd, Panki, Jharkhand 822122, India","DHUB,PANKI,PALAMU,Jharkhand"
22.6629361,85.35238199999999,"Dindapai, Jharkhand 833103, India","DINDAPAI,GUDRI,PASHCHIMI SINGHBHUM,Jharkhand"
22.452488,85.9443553,"Tantnagar, Jharkhand 833204, India","DOBROBASA(LOWALANDIR),TANTNAGAR,PASHCHIMI SINGHBHUM,Jharkhand"
27.1659296,84.32697110000001,"Ramnagar, Bihar 845106, India","DOKHNI,RAMNAGAR,PASHCHIM CHAMPARAN,Bihar"
24.3877594,86.7830685,"Deoghar, Jharkhand 814120, India","DONDIYA,SARWAN,DEOGHAR,Jharkhand"
26.4409294,85.6653206,"Nanpur, Bihar 843333, India","DORPUR,NANPUR,SITAMARHI,Bihar"
24.0035785,84.55301279999999,"Duwarika, Jharkhand, India","DUARIKA,PANKI,PALAMU,Jharkhand"
22.3730219,85.19717630000001,"Manoharpur, Jharkhand 833104, India","DUBIL,MANOHARPUR,PASHCHIMI SINGHBHUM,Jharkhand"
24.2747622,86.6554041,"Deoghar - Sarwan Rd, Jharkhand, India","DUBJORA,SARWAN,DEOGHAR,Jharkhand"
26.7994224,84.6204403,"Majhaulia, Bihar 845454, India","DUDHA,MAJHAULIA,PASHCHIM CHAMPARAN,Bihar"
27.2296952,84.5942642,"Dudhaura, Bihar 845306, India","DUDHAURA,MAINATAND,PASHCHIM CHAMPARAN,Bihar"
27.4425637,82.2501812,"Durgapur, Uttar Pradesh 271201, India","DUGAPUR,BALRAMPUR,BALRAMPUR,Uttar Pradesh"
19.6592704,82.08701270000002,"Duglahandi, Odisha 764073, India","DUGLAHANDI ,KOSAGUMUDA,NABARANGPUR,Odisha"
22.7954714,85.62549969999999,"Dukri, Jharkhand 833102, India","DUKRI,CHAKRADHARPUR,PASHCHIMI SINGHBHUM,Jharkhand"
27.5321859,82.5402402,"Gainsari, Uttar Pradesh 271210, India","DULHINDEEH,GAINSARI,BALRAMPUR,Uttar Pradesh"
19.9445257,82.79167149999999,"Dumerguda, Odisha 766029, India","DUMERGUDA,DHARAMGARH,KALAHANDI,Odisha"
24.190748,84.42251859999999,"Dumri, Jharkhand 822113, India","DUMRI,MANATU,PALAMU,Jharkhand"
26.7275432,85.39710749999999,"Majorganj - Dheng Rd, Bihar, India","DUMRI KHURD,MAJORGANJ,SITAMARHI,Bihar"
21.9495079,83.70264300000001,"Hemgir, Odisha 770013, India","DUNGRIDIHI,HEMGIRI,SUNDERGARH,Odisha"
27.0262054,84.68131330000001,"Sikta, Bihar, India","EKDARI MANGALPUR,SIKTA,PASHCHIM CHAMPARAN,Bihar"
23.9268683,84.2568529,"Satbarwa, Jharkhand 822126, India","EKTA,SATBARWA,PALAMU,Jharkhand"
22.3366053,85.9292238,"Chaibasa-Bharbharia-Kumardungi Rd, Roladih, Jharkhand 833201, India","EPILSINGI,MANJHARI,PASHCHIMI SINGHBHUM,Jharkhand"
27.5290248,82.4042298,"Orajhar, Uttar Pradesh 271210, India","FATEH NAGRA,TULSIPUR,BALRAMPUR,Uttar Pradesh"
27.4307473,82.1805203,"Balrampur, Uttar Pradesh 271201, India","FATTAY JOT,BALRAMPUR,BALRAMPUR,Uttar Pradesh"
27.179823,82.27907490000001,"Rehra, Uttar Pradesh 271306, India","FIROZPUR,REHRA BAZAR,BALRAMPUR,Uttar Pradesh"
19.324119,83.4310031,"Dhepaguda, Odisha 765018, India","G.DHEPAGUDA,GUDARI,RAYAGADA,Odisha"
18.871165,82.5473279,"Gaganapur, Jeypore, Odisha 764005, India","GAGANAPUR,JEYPORE,KORAPUT,Odisha"
24.474789,84.2186578,"Gahora, Jharkhand 822113, India","GAHORA,PIPRA,PALAMU,Jharkhand"
19.8459161,82.4908427,"Chandahandi, Odisha 764077, India","GAMBHARIGUDA,CHANDAHANDI,NABARANGPUR,Odisha"
20.3435552,82.9111585,"Bangomunda, Odisha 767040, India","GANDHARLLA,BANGOMUNDA,BOLANGIR,Odisha"
27.5246311,82.4156829,"Tulsipur, Uttar Pradesh, India","GANESHPUR,TULSIPUR,BALRAMPUR,Uttar Pradesh"
20.7028479,83.11396189999999,"Gangasagar, Odisha 767025, India","GANGASAGAR,PATNAGARH,BOLANGIR,Odisha"
22.3015523,85.3988579,"Gangda, Jharkhand, India","GANGDA,MANOHARPUR,PASHCHIMI SINGHBHUM,Jharkhand"
26.3726481,85.4927026,"Runni Saidpur Madhya, Bihar, India","GANGWARA,RUNNI SAIDPUR,SITAMARHI,Bihar"
22.5474364,85.8025373,"Chaibasa, Jharkhand, India","GANJRA,SADAR CHAIBASA,PASHCHIMI SINGHBHUM,Jharkhand"
24.0142427,84.1382368,"Ganke, Jharkhand, India","GANKE,DALTONGANJ,PALAMU,Jharkhand"
27.6152361,82.33355120000002,"Lalnagar - Garhwa Kalan Rd, Uttar Pradesh 271208, India","GARDHWA KALAN,TULSIPUR,BALRAMPUR,Uttar Pradesh"
26.5647901,85.5226041,"Dumra, Bihar 843314, India","GARHIATOL WD NO 5,DUMRA,SITAMARHI,Bihar"
20.7682815,83.26933269999999,"Garjan, Odisha, India","GARJAN,BALANGIR,BOLANGIR,Odisha"
26.4409294,85.6653206,"Nanpur, Bihar 843333, India","GAURA,NANPUR,SITAMARHI,Bihar"
24.0165471,84.27791549999999,"Gentha, Jharkhand 822118, India","GENTHA,LESLIGANJ,PALAMU,Jharkhand"
24.2424585,86.7881329,"Ghagarjor, Jharkhand, India","GHAGHRJOR,SARATH,DEOGHAR,Jharkhand"
18.9133226,82.4671524,"Ghatobagra, Odisha 764002, India","GHATOBAGRA,JEYPORE,KORAPUT,Odisha"
26.9445192,84.53794549999999,"Chanpatia, Bihar 845449, India","GHOGHA,CHANPATIA,PASHCHIM CHAMPARAN,Bihar"
26.7056647,85.5353007,"Ghoghraha, Bihar 843327, India","GHOGRAHA,BATHNAHA,SITAMARHI,Bihar"
21.7633498,85.9738752,"Karanjia, Odisha 757037, India","GHOSADA,KARANJIA,MAYURBHANJ,Odisha"
27.4288227,82.171455,"Balrampur, Uttar Pradesh 271201, India","GHOSIYAR,BALRAMPUR,BALRAMPUR,Uttar Pradesh"
20.3869482,83.0139811,"Muribahal, Odisha 767037, India","GHUSURAMUNDA,MURIBAHAL,BOLANGIR,Odisha"
27.4469081,82.1196764,"Gidhraiya, Uttar Pradesh 271201, India","GIDHRAIYA,BALRAMPUR,BALRAMPUR,Uttar Pradesh"
22.4222224,85.9074526,"Didibasang alias Gidibas, Jharkhand 833204, India","GIDIBAS,TANTNAGAR,PASHCHIMI SINGHBHUM,Jharkhand"
18.9220376,82.3912892,"Kundra, Odisha 764002, India","GIRLIGUDA,KUNDRA,KORAPUT,Odisha"
19.6168258,82.28344849999999,"Gobri, Odisha 764076, India","GOBARI,JHARIGAM,NABARANGPUR,Odisha"
27.1659296,84.32697110000001,"Ramnagar, Bihar 845106, India","GOBRAHIA,RAMNAGAR,PASHCHIM CHAMPARAN,Bihar"
27.0274367,84.4448348,"Gobraura, Bihar, India","GOBRAURA,LAURIYA,PASHCHIM CHAMPARAN,Bihar"
22.1316928,84.8854545,"Lathikata, Odisha 770037, India","GOIBHANGA,LATHIKATA,SUNDERGARH,Odisha"
24.3690508,84.1880936,"NH 98, Chhatarpur, Jharkhand 822113, India","GONTHA,CHHATARPUR,PALAMU,Jharkhand"
24.0297276,84.19493829999999,"Gopalganj, Jharkhand 822118, India","GOPALGANJ,LESLIGANJ,PALAMU,Jharkhand"
22.6898444,85.6388248,"Gopinathpur Rd., Chakradharpur, Jharkhand 833102, India","GOPINATH PUR,CHAKRADHARPUR,PASHCHIMI SINGHBHUM,Jharkhand"
27.4297064,82.17680179999999,"Mohalla Chikni, Alijanpurva, Balrampur, Uttar Pradesh 271201, India","GORWA,BALRAMPUR,Uttar Pradesh"
22.3366053,85.9292238,"Chaibasa-Bharbharia-Kumardungi Rd, Roladih, Jharkhand 833201, India","GOUGUTTU,MANJHARI,PASHCHIMI SINGHBHUM,Jharkhand"
26.7994224,84.6204403,"Majhaulia, Bihar 845454, India","GUDRA,MAJHAULIA,PASHCHIM CHAMPARAN,Bihar"
22.6840627,85.2114218,"Gudri, Jharkhand 833103, India","GULIKERA,GUDRI,PASHCHIMI SINGHBHUM,Jharkhand"
22.1574019,85.50843479999999,"Noamundi, Jharkhand 833217, India","GUNDIJORA,NOAMUNDI,PASHCHIMI SINGHBHUM,Jharkhand"
20.1383296,84.00710130000002,"K, near PHED OFFICE K, Nuagam, Odisha 762102, India","GUNJIBADI,K.NUAGAM,KANDHAMAL,Odisha"
27.5181738,82.64614189999999,"Pachperwa, Uttar Pradesh 271206, India","GURCHIHWA,PACHPERWA,BALRAMPUR,Uttar Pradesh"
24.3746769,84.1936203,"Chhatarpur, Jharkhand 822113, India","GURDI,CHHATARPUR,PALAMU,Jharkhand"
22.0943321,85.8818829,"Majhgaon, Jharkhand 833214, India","HALDIA,MAJHGAON,PASHCHIMI SINGHBHUM,Jharkhand"
22.199415,85.7448727,"Hapugutu, Jharkhand 833214, India","HAPUGUTU,HATGAMAHARIA,PASHCHIMI SINGHBHUM,Jharkhand"
24.0578268,84.48173419999999,"Haraiya, Panki, Jharkhand 822122, India","HARAIYA,PANKI,PALAMU,Jharkhand"
18.9607775,82.54563739999999,"Haridaput, Odisha 764055, India","HARIDAPUT,JEYPORE,KORAPUT,Odisha"
27.0221476,84.6884426,"Haripur, Bihar 845307, India","HARIPUR,THAKARAHAN,PASHCHIM CHAMPARAN,Bihar"
27.1991137,84.1072262,"Harka, Bihar 845105, India","HARKA,BAGAHA-II (SIDHAW),PASHCHIM CHAMPARAN,Bihar"
27.0921688,84.0941,"Main Road, near police station, Tiwari Tola, Bagaha, Bihar 845101, India","HARPUR,BAGAHA-I,PASHCHIM CHAMPARAN,Bihar"
27.4288227,82.171455,"Balrampur, Uttar Pradesh 271201, India","HARVASHPUR,BALRAMPUR,BALRAMPUR,Uttar Pradesh"
27.0809141,82.406875,"Hasanpur, Uttar Pradesh 271312, India","HASANA PUR,HARAIYA SATGHARWA,BALRAMPUR,Uttar Pradesh"
27.4358005,82.1621437,"Koeliha, Uttar Pradesh 271201, India","HASWADOL,BALRAMPUR,BALRAMPUR,Uttar Pradesh"
27.243445,84.0299601,"Sidhaw, Bihar 845101, India","HATHIANWA,BAGAHA-II (SIDHAW),PASHCHIM CHAMPARAN,Bihar"
27.6377845,82.29905839999999,"Harraiya Satgharwa, Uttar Pradesh 271208, India","HATHIGARDA,HARAIYA SATGHARWA,BALRAMPUR,Uttar Pradesh"
22.4112236,85.765722,"Jhinkpani, Jorapokhar, Jharkhand 833215, India","HATHIMANDA,JHINKPANI,PASHCHIMI SINGHBHUM,Jharkhand"
22.678237,85.62731699999999,"Chakradharpur, South Eastern Railway Colony, Chakradharpur, Jharkhand 833102, India","HEJEYA,CHAKRADHARPUR,PASHCHIMI SINGHBHUM,Jharkhand"
24.3649483,84.1916261,"Hesla Rd, Chhatarpur, Jharkhand 822113, India","HESLA,CHHATARPUR,PALAMU,Jharkhand"
21.9569581,85.8614181,"Raruan, Odisha 757035, India","HINDOLA,RARUAN,MAYURBHANJ,Odisha"
27.6377845,82.29905839999999,"Harraiya Satgharwa, Uttar Pradesh 271208, India","HINDULI KALAN,HARAIYA SATGHARWA,BALRAMPUR,Uttar Pradesh"
20.8431767,83.52034719999999,"Hirapur, Odisha 767020, India","HIRAPUR,LOISINGHA,BOLANGIR,Odisha"
19.2231058,82.53211189999999,"Hirli, Odisha, India","HIRLI,PAPADAHANDI,NABARANGPUR,Odisha"
22.6444925,85.8079675,"Unnamed Road, Pandrasali, Matkobera, Jharkhand 833101, India","HOBALKAND,HATGAMAHARIA,PASHCHIMI SINGHBHUM,Jharkhand"
24.0357114,84.47763719999999,"Panki, Jharkhand 822122, India","HOTAI,PANKI,PALAMU,Jharkhand"
22.6765454,85.62549969999999,"Chakradharpur, Jharkhand 833102, India","HOYOHATU,CHAKRADHARPUR,PASHCHIMI SINGHBHUM,Jharkhand"
24.2780815,84.22261019999999,"Hulsam, Jharkhand 822113, India","HULSAM,CHHATARPUR,PALAMU,Jharkhand"
24.0539797,84.4500844,"Basdiha, Jharkhand 822122, India","HUSSAINIGURHA,PANKI,PALAMU,Jharkhand"
26.846189,85.578966,"Sonwarsa, Sitamarhi, NH-77, Sonbarsa, Ward Number 1, Sonbarsa, Bihar 843330, India","INDWARA,SONBARSA,SITAMARHI,Bihar"
26.4409294,85.6653206,"Vill+post ,Bhadiyan P.S ,NANPUR, DIST, Sitamarhi, Bihar 843333, India","ISLAMPUR,NANPUR,SITAMARHI,Bihar"
24.3149419,84.2186578,"Itakdag, Jharkhand 822113, India","ITAKDAG,CHHATARPUR,PALAMU,Jharkhand"
22.2132074,85.87676739999999,"Kumardungi, Jharkhand 833214, India","ITAR,KUMARDUNGI,PASHCHIMI SINGHBHUM,Jharkhand"
27.4277007,82.1719438,"MDR 10E, near Zilla Panchayat Office, Balrampur, Uttar Pradesh 271201, India","JABDAHA,BALRAMPUR,BALRAMPUR,Uttar Pradesh"
27.5246311,82.4156829,"Tulsipur, Uttar Pradesh, India","JADDAPUR,TULSIPUR,BALRAMPUR,Uttar Pradesh"
27.1830686,82.2765909,"PRATHMIK KENDRA, near BLOCK, Rehra Bazar, Rehra, Uttar Pradesh 271306, India","JAFARPUR,REHRA BAZAR,BALRAMPUR,Uttar Pradesh"
19.7533787,83.5523205,"Jagadalpur, Odisha 765020, India","JAGADALPUR,MUNIGUDA,RAYAGADA,Odisha"
19.8098197,85.8236956,"Jagannath ballav. Block-C.Shop No-75,76, Grand Rd, near Market squre, Puri, Odisha 752001, India","JAGANNATH BALLAV,PURI SADAR,PURI,Odisha"
27.5120117,82.6419317,"Pachperwa, Uttar Pradesh 271206, India","JAGDIS PUR,PACHPERWA,BALRAMPUR,Uttar Pradesh"
22.1712189,86.29836829999999,"Jamudali, Odisha, India","JAMUDALI,BIJATOLA,MAYURBHANJ,Odisha"
19.9618465,83.22249269999999,"Janakpur, Odisha 766011, India","JANAKPUR,BHAWANIPATNA,KALAHANDI,Odisha"
26.4409294,85.6653206,"Nanpur, Bihar 843333, India","JANIPUR,NANPUR,SITAMARHI,Bihar"
19.0517161,82.5486131,"Borigumma, Odisha 764056, India","JANNIGUDA,BORIGUMMA,KORAPUT,Odisha"
24.0357114,84.47763719999999,"Panki, Jharkhand 822122, India","JASPUR,PANKI,PALAMU,Jharkhand"
22.6813546,85.20384419999999,"Rajgaon, Jharkhand 833103, India","JATE,GUDRI,PASHCHIMI SINGHBHUM,Jharkhand"
24.0019313,84.2041637,"Jhabar, Jharkhand, India","JHABAR,DALTONGANJ,PALAMU,Jharkhand"
19.0581757,82.5501857,"Jhilimili Rd, Jhilimili, Odisha 764056, India","JHILIMILI,BORIGUMMA,KORAPUT,Odisha"
22.1316928,84.8854545,"Lathikata, Odisha 770037, India","JIABAHAL,LATHIKATA,SUNDERGARH,Odisha"
22.6813546,85.20384419999999,"Rajgaon, Jharkhand 833103, India","JILINGGUTU,GUDRI,PASHCHIMI SINGHBHUM,Jharkhand"
24.0357114,84.47763719999999,"Panki, Jharkhand 822122, India","JIRO,PANKI,PALAMU,Jharkhand"
27.5120117,82.6419317,"Pachperwa, Uttar Pradesh 271206, India","JOGINIYA,PACHPERWA,BALRAMPUR,Uttar Pradesh"
24.0357114,84.47763719999999,"Panki, Jharkhand 822122, India","JOLHAWIGAHA,PANKI,PALAMU,Jharkhand"
27.4288227,82.171455,"Balrampur, Uttar Pradesh 271201, India","JORAWERPUR,BALRAMPUR,BALRAMPUR,Uttar Pradesh"
22.2089216,85.6425493,"Jagannathpur, Jharkhand 833203, India","JUGINANDA,JAGANNATHPUR,PASHCHIMI SINGHBHUM,Jharkhand"
27.5246311,82.4156829,"Tulsipur, Uttar Pradesh, India","JUNGLI KALAN,TULSIPUR,BALRAMPUR,Uttar Pradesh"
24.3746769,84.1936203,"Chhatarpur, Jharkhand 822113, India","KACHANPUR,CHHATARPUR,PALAMU,Jharkhand"
26.7848108,85.6049354,"Kachharipur, Bihar 843330, India","KACHHARIPUR,SONBARSA,SITAMARHI,Bihar"
22.1442295,85.584051,"Kadajamda Road, Jharkhand 833203, India","KADA JAMDA,NOAMUNDI,PASHCHIMI SINGHBHUM,Jharkhand"
22.5075703,85.3769159,"Goilkera, Jharkhand 833103, India","KAIDA,GOELKERA,PASHCHIMI SINGHBHUM,Jharkhand"
27.4092776,82.41432789999999,"Kailash Garh, Uttar Pradesh, India","KAILASH GARH,BALRAMPUR,BALRAMPUR,Uttar Pradesh"
27.5711909,82.04888629999999,"Kaili, Uttar Pradesh 271861, India","KAILI BHAGAVANPUR,HARAIYA SATGHARWA,BALRAMPUR,Uttar Pradesh"
21.5753338,86.56523179999999,"SDH Hospital Rd, Dugudha, Udala, Odisha 757041, India","KAINSARI,UDALA,MAYURBHANJ,Odisha"
22.218984,85.6409178,"Jagannathpur, Jharkhand 833203, India","KAKUITA,JAGANNATHPUR,PASHCHIMI SINGHBHUM,Jharkhand"
19.9108129,83.1722157,"Weekly Market Rd, Ramnagar Para, Bhawanipatna, Odisha 766001, India","KALAM ,BHAWANIPATNA,KALAHANDI,Odisha"
27.4751618,82.1550451,"Kalanderpur, Uttar Pradesh 271201, India","KALANDER PUR,BALRAMPUR,BALRAMPUR,Uttar Pradesh"
18.9220376,82.3912892,"Kundra, Odisha 764002, India","KALAPARA,KUNDRA,KORAPUT,Odisha"
27.5678181,82.6431477,"Kalyanpur, Uttar Pradesh, India","KALYANPUR,PACHPERWA,BALRAMPUR,Uttar Pradesh"
22.3730219,85.19717630000001,"Manoharpur, Jharkhand 833104, India","KAMARBERA,MANOHARPUR,PASHCHIMI SINGHBHUM,Jharkhand"
20.4186519,83.3155811,"Karlakhunta, Odisha 767070, India","KAMARLAGA,SAINTALA,BOLANGIR,Odisha"
24.0438275,84.4254727,"Kamat, Jharkhand 822122, India","KAMAT,PANKI,PALAMU,Jharkhand"
27.6323707,82.25393009999999,"Kamda, Uttar Pradesh, India","KAMDA,HARAIYA SATGHARWA,BALRAMPUR,Uttar Pradesh"
19.0517161,82.5486131,"Borigumma, Odisha 764056, India","KANAGAM,BORIGUMMA,KORAPUT,Odisha"
27.5290248,82.4042298,"Orajhar, Uttar Pradesh 271210, India","KANAHRA,TULSIPUR,BALRAMPUR,Uttar Pradesh"
26.4339897,82.77126009999999,"Ashrafpur Kichhauchha, Uttar Pradesh, India","KANCHAR ASHRAFPUR,REHRA BAZAR,BALRAMPUR,Uttar Pradesh"
27.541635,82.3533266,"Kandaila, Uttar Pradesh 271208, India","KANDAILA,TULSIPUR,BALRAMPUR,Uttar Pradesh"
26.7998795,85.522599,"Kanhauli, Bihar, India","KANHAULI,SONBARSA,SITAMARHI,Bihar"
20.1383296,84.00710130000002,"K, near PHED OFFICE K, Nuagam, Odisha 762102, India","KANJAMENDI,K.NUAGAM,KANDHAMAL,Odisha"
18.8886134,82.5131717,"Kankadahandi, Odisha, India","KANKADAHANDI,JEYPORE,KORAPUT,Odisha"
22.1316928,84.8854545,"Lathikata, Odisha 770037, India","KANSAR,LATHIKATA,SUNDERGARH,Odisha"
19.664737,82.2121421,"Umerkote, Odisha 764073, India","KARAGAM,UMERKOTE,NABARANGPUR,Odisha"
22.4052317,84.84245709999999,"Karkatnasa, Odisha 770046, India","KARKATNASA,NUAGAON,SUNDERGARH,Odisha"
23.9347181,84.26870149999999,"Karma, Jharkhand 822126, India","KARMA,SATBARWA,PALAMU,Jharkhand"
24.3746769,84.1936203,"Chhatarpur, Jharkhand 822113, India","KARMA,CHHATARPUR,PALAMU,Jharkhand"
24.3733078,84.1929949,"Bara, Palamu, NH-98, Aurangabad, Road, Chhatarpur, Jharkhand 822113, India","KARMA KALA,CHHATARPUR,PALAMU,Jharkhand"
27.6377845,82.29905839999999,"Harraiya Satgharwa, Uttar Pradesh 271208, India","KARMAITI,HARAIYA SATGHARWA,BALRAMPUR,Uttar Pradesh"
19.519152,82.7812273,"Karmeli, Odisha 766018, India","KARMELI,JAIPATNA,KALAHANDI,Odisha"
26.6442157,85.7205065,"near punjab national bank, Sursand Pashchimi, Bihar 843331, India","KARUNA,SURSAND,SITAMARHI,Bihar"
22.452488,85.9443553,"Tantnagar, Jharkhand 833204, India","KASEYA,TANTNAGAR,PASHCHIMI SINGHBHUM,Jharkhand"
26.797395,84.625991,"Majhaulia - Jagdishpur Rd, Majhaulia, Bihar 845454, India","KATHAIA,MAJHAULIA,PASHCHIM CHAMPARAN,Bihar"
22.452488,85.9443553,"Tantnagar, Jharkhand 833204, India","KATHBHARI,TANTNAGAR,PASHCHIMI SINGHBHUM,Jharkhand"
26.4590306,85.58307719999999,"Kauriya Lalpur, Bihar, India","KAURIA,RUNNI SAIDPUR,SITAMARHI,Bihar"
24.3746769,84.1936203,"Chhatarpur, Jharkhand 822113, India","KAWAL,CHHATARPUR,PALAMU,Jharkhand"
18.963375,82.6105228,"Kebidi, Odisha, India","KEBIDI,JEYPORE,KORAPUT,Odisha"
24.0384317,84.53673119999999,"Kelwa, Jharkhand 822122, India","KELHAWA,PANKI,PALAMU,Jharkhand"
18.8262642,82.3587511,"Kenduguda, Odisha 764043, India","KENDUGUDA,JEYPORE,KORAPUT,Odisha"
19.8214366,85.8284441,"Rina Rd, Gopinathpur, Puri, Odisha 752002, India","KERANDIPUR,PURI SADAR,PURI,Odisha"
24.3746769,84.1936203,"Chhatarpur, Jharkhand 822113, India","KERKI KALA,CHHATARPUR,PALAMU,Jharkhand"
24.294488,84.3321271,"Manatu - Chhatarpur Rd, Harni, Jharkhand 822113, India","KERKI KHURD,CHHATARPUR,PALAMU,Jharkhand"
27.6377845,82.29905839999999,"Harraiya Satgharwa, Uttar Pradesh 271208, India","KERWANIYA,HARAIYA SATGHARWA,BALRAMPUR,Uttar Pradesh"
19.2967967,83.3709253,"Keutoguda, Odisha 765017, India","KEUTOGUDA,KOLNARA,RAYAGADA,Odisha"
27.5454283,82.5353908,"Kewalpur, Uttar Pradesh 271210, India","KEWAL PUR,GAINSARI,BALRAMPUR,Uttar Pradesh"
24.0331665,84.0743931,"DaltonGanj, Station Road, Belwatika, Daltonganj, Jharkhand 822101, India","KEWATVAR,DALTONGANJ,PALAMU,Jharkhand"
27.5594352,82.3587511,"Khaira, Uttar Pradesh 271208, India","KHAIRA KOT,BALRAMPUR,BALRAMPUR,Uttar Pradesh"
24.0879987,84.2476356,"Khairant, Jharkhand, India","KHAIRANT,LESLIGANJ,PALAMU,Jharkhand"
22.1432179,84.8800727,"police station, Lathikata, Odisha 770037, India","KHAIRBANDH,LATHIKATA,SUNDERGARH,Odisha"
20.1626871,83.09250229999999,"Seinpur, Odisha 766036, India","KHAIRMAL,BHAWANIPATNA,KALAHANDI,Odisha"
26.7270002,85.39626179999999,"Majorganj - Dheng Rd, Dumari Kala, Bihar 843327, India","KHAIRWA BAINATHPUR,MAJORGANJ,SITAMARHI,Bihar"
26.7386578,85.4367078,"Khairwa Chainpur, Riga - Majorganj Rd, Khairwa, Bihar 843332, India","KHAIRWA CHAINPUR,MAJORGANJ,SITAMARHI,Bihar"
27.4156158,82.3967108,"Khajuria, Uttar Pradesh, India","KHAJURIYA,BALRAMPUR,BALRAMPUR,Uttar Pradesh"
24.202349,84.1778016,"Patan, Jharkhand 822123, India","KHAMHI,PATAN,PALAMU,Jharkhand"
21.7471795,86.8393452,"Betnoti, Mayurbhanj, Odisha 757025, India","KHANDADEOLA,BETNOTI,MAYURBHANJ,Odisha"
27.1826478,82.2854787,"Rehra, Uttar Pradesh 271306, India","KHANPUR,REHRA BAZAR,BALRAMPUR,Uttar Pradesh"
24.4870089,83.944655,"Haidar Nagar, Jharkhand 822115, India","KHARGARA,HAIDARNAGAR,PALAMU,Jharkhand"
27.1830686,82.2765909,"PRATHMIK KENDRA, near BLOCK, Rehra Bazar, Rehra, Uttar Pradesh 271306, India","KHARIKA MASOOMPUR,REHRA BAZAR,BALRAMPUR,Uttar Pradesh"
22.1600279,84.30423329999999,"Bargaon, Odisha 770016, India","KHARIKAMUNDA,BARGAON,SUNDERGARH,Odisha"
24.3822034,84.2357828,"Kharwardih, Jharkhand 822113, India","KHARWARDIH,CHHATARPUR,PALAMU,Jharkhand"
22.279113,84.48040809999999,"Khatkhur Bahal, Odisha 770018, India","KHATAKURBAHAL,KUTRA,SUNDERGARH,Odisha"
27.2177641,84.2568529,"Khataura, Bihar 845106, India","KHATAURA,RAMNAGAR,PASHCHIM CHAMPARAN,Bihar"
18.751105,82.4332952,"Boipariguda, Odisha 764043, India","KHEMABEDA,BOIPARIGUDA,KORAPUT,Odisha"
22.452488,85.9443553,"Tantnagar, Jharkhand 833204, India","KHERIATANGAR,TANTNAGAR,PASHCHIMI SINGHBHUM,Jharkhand"
24.3690508,84.1880936,"NH 98, Chhatarpur, Jharkhand 822113, India","KHORI,CHHATARPUR,PALAMU,Jharkhand"
26.5316451,85.7948524,"Charaut, Bihar 843319, India","KHORIA,CHORAUT,SITAMARHI,Bihar"
26.7345002,85.6422024,"Khursaha, Bihar 843324, India","KHURSAHA,PARIHAR,SITAMARHI,Bihar"
26.846189,85.578966,"Sonwarsa, Sitamarhi, NH-77, Sonbarsa, Ward Number 1, Sonbarsa, Bihar 843330, India","KHUTHA,SONBARSA,SITAMARHI,Bihar"
27.4288227,82.171455,"Balrampur, Uttar Pradesh 271201, India","KHUTHWA,HARAIYA SATGHARWA,BALRAMPUR,Uttar Pradesh"
20.2768231,83.28538429999999,"Kinerkela, Odisha, India","KINERKELA,KESINGA,KALAHANDI,Odisha"
24.202349,84.1778016,"Patan, Jharkhand 822123, India","KISAINI,PATAN,PALAMU,Jharkhand"
19.1404296,82.318057,"E.O, Notified Area Council, Kotpad Main Road, Kotapad, Odisha 764058, India","KODAGAM,KOTPAD,KORAPUT,Odisha"
27.6377845,82.29905839999999,"Harraiya Satgharwa, Uttar Pradesh 271208, India","KODRI,HARAIYA SATGHARWA,BALRAMPUR,Uttar Pradesh"
27.4123642,82.17273809999999,"utraula Road, Balrampur, Uttar Pradesh 271201, India","KOILARA,BALRAMPUR,BALRAMPUR,Uttar Pradesh"
27.0725715,84.4784478,"Unnamed Road, Koirganwan, Bihar 845307, India","KOIRGAWAN,JOGAPATTI,PASHCHIM CHAMPARAN,Bihar"
23.8839142,84.0616709,"Kokaru, Jharkhand, India","KOKARU,RAMGARH,PALAMU,Jharkhand"
24.1993595,84.1765863,"NH 98, Patan, Jharkhand 822123, India","KOLHUWA,PATAN,PALAMU,Jharkhand"
27.4309019,82.1805869,"Motisagar, Balrampur, Uttar Pradesh 271201, India","KOLWA,BALRAMPUR,BALRAMPUR,Uttar Pradesh"
22.6813546,85.20384419999999,"Rajgaon, Jharkhand 833103, India","KOMSAI,GUDRI,PASHCHIMI SINGHBHUM,Jharkhand"
27.5322145,82.57044169999999,"822, Vill. Bakauli Dalpur Post. Gainsari, Tulsipur, Uttar Pradesh 271210, India","KONDARI,GAINSARI,BALRAMPUR,Uttar Pradesh"
22.5075703,85.3769159,"Goilkera, Jharkhand 833103, India","KONENA,GOELKERA,PASHCHIMI SINGHBHUM,Jharkhand"
18.99883,82.4644445,"Konga, Odisha, India","KONGA,JEYPORE,KORAPUT,Odisha"
26.3726481,85.4927026,"Runni Saidpur Madhya, Bihar, India","KORLAHI MANSINGH,RUNNI SAIDPUR,SITAMARHI,Bihar"
20.4368757,83.3629107,"Kuanrgaon, Odisha 767032, India","KUANRGAON,SAINTALA,BOLANGIR,Odisha"
22.6327619,85.33688120000001,"Kudada, Jharkhand 833103, India","KUDADA,GUDRI,PASHCHIMI SINGHBHUM,Jharkhand"
22.3643756,85.6280697,"Kudamsada, Jharkhand, India","KUDAM SADA,NOAMUNDI,PASHCHIMI SINGHBHUM,Jharkhand"
20.1353735,84.0074882,"Nuagam, Odisha 762102, India","KUDUPAKIA,K.NUAGAM,KANDHAMAL,Odisha"
19.1404296,82.318057,"Kotapad, Odisha 764058, India","KUHUDIGAM,KOTPAD,KORAPUT,Odisha"
22.2279367,84.9219115,"Kukuda, Odisha, India","KUKUDA,BISRA,SUNDERGARH,Odisha"
22.5075703,85.3769159,"Goilkera, Jharkhand 833103, India","KULA,GOELKERA,PASHCHIMI SINGHBHUM,Jharkhand"
22.028232,86.9448841,"Suliapada, Odisha 757022, India","KULADAHANI,SULIAPADA,MAYURBHANJ,Odisha"
22.6263463,85.6383484,"Kulitondang, Jharkhand 833102, India","KULITONDANG,CHAKRADHARPUR,PASHCHIMI SINGHBHUM,Jharkhand"
24.2775877,84.1023541,"Palamu, Jharkhand 822113, India","KUMBHI KALA,NAWA BAZAR,PALAMU,Jharkhand"
22.452488,85.9443553,"Tantnagar, Jharkhand 833204, India","KUMBHRAM,TANTNAGAR,PASHCHIMI SINGHBHUM,Jharkhand"
22.2935465,85.3265449,"Kumbia, Jharkhand, India","KUNBIA,MANOHARPUR,PASHCHIMI SINGHBHUM,Jharkhand"
24.3728115,84.19798879999999,"Unnamed Road, Chhatarpur, Jharkhand 822113, India","KUNDOULI,CHHATARPUR,PALAMU,Jharkhand"
22.8642957,85.3265449,"Bandgaon, Jharkhand 835216, India","KUNDRUGUTU,BANDGAON,PASHCHIMI SINGHBHUM,Jharkhand"
19.0701537,82.5483422,"Kunduraguda, Odisha 764056, India","KUNDURAGUDA,BORIGUMMA,KORAPUT,Odisha"
18.8434563,82.5280537,"Kunturukhal, Odisha 764005, India","KUNTURUKHAL,JEYPORE,KORAPUT,Odisha"
26.7994224,84.6204403,"Majhaulia, Bihar 845454, India","KURIA,MAJHAULIA,PASHCHIM CHAMPARAN,Bihar"
24.3746769,84.1936203,"Chhatarpur, Jharkhand 822113, India","KURKUTA,CHHATARPUR,PALAMU,Jharkhand"
22.2094924,85.55145979999999,"Kolebira - Hat Gamharia Rd, Jharkhand, India","KUSHMUNDA,HATGAMAHARIA,PASHCHIMI SINGHBHUM,Jharkhand"
24.2493429,86.65921929999999,"Kusmaha, Jharkhand 815353, India","KUSMAHA,SARATH,DEOGHAR,Jharkhand"
22.1600279,84.30423329999999,"Bargaon, Odisha 770016, India","KUSTUNA,BARGAON,SUNDERGARH,Odisha"
19.2058193,82.54293249999999,"Kusumi, Odisha, India","KUSUMI,NABARANGPUR,NABARANGPUR,Odisha"
21.5029445,86.5034447,"Kusunpur, Odisha 757040, India","KUSUNPUR,KAPTIPADA,MAYURBHANJ,Odisha"
25.7868163,84.7253669,"Chhapra, Railway Colony, Chapra, Bihar 841301, India","LACCHU CHHAPAR A.B.,Bihar"
22.3730219,85.19717630000001,"Manoharpur, Jharkhand 833104, India","LAILOR,MANOHARPUR,PASHCHIMI SINGHBHUM,Jharkhand"
27.6856304,82.3207707,"Lakhahi, Uttar Pradesh 271208, India","LAKHAHI,BALRAMPUR,BALRAMPUR,Uttar Pradesh"
27.6377845,82.29905839999999,"Harraiya Satgharwa, Uttar Pradesh 271208, India","LAKHANIPUR,HARAIYA SATGHARWA,BALRAMPUR,Uttar Pradesh"
24.1951714,86.9436321,"Lakhanpur, Jharkhand 814149, India","LAKHANPUR,PALOJORI,DEOGHAR,Jharkhand"
19.4387267,82.74819959999999,"Lakhabahali, Odisha, India","LAKHBAHALI ,JAIPATNA,KALAHANDI,Odisha"
22.1024365,85.73333219999999,"Lakhipai, Jharkhand 833203, India","LAKHIPAI,JAGANNATHPUR,PASHCHIMI SINGHBHUM,Jharkhand"
24.2747622,86.6554041,"Deoghar - Sarwan Rd, Jharkhand, India","LAKHORIYA,SARWAN,DEOGHAR,Jharkhand"
27.4346558,82.2219104,"MDR10E, Balrampur Rural, Uttar Pradesh 271201, India","LAKSHAMAN PUR,BALRAMPUR,BALRAMPUR,Uttar Pradesh"
26.8809809,84.3862733,"Belbanwa, Bihar 845452, India","LAKSHMIPUR,JOGAPATTI,PASHCHIM CHAMPARAN,Bihar"
27.4097358,82.0815673,"Lal Bojhi, Uttar Pradesh, India","LAL BOJHI,TULSIPUR,BALRAMPUR,Uttar Pradesh"
26.4677837,85.580505,"Kauriya Lalpur, Bihar, India","LALPUR,RUNNI SAIDPUR,SITAMARHI,Bihar"
27.3452968,82.582143,"Lalpur, Bhaluhiya, Uttar Pradesh 271312, India","LALPUR BHALUHIYA,REHRA BAZAR,BALRAMPUR,Uttar Pradesh"
27.3713477,82.150965,"Lalpur, Uttar Pradesh 271201, India","LALPUR KANJEBARIYA,HARAIYA SATGHARWA,BALRAMPUR,Uttar Pradesh"
27.5246311,82.4156829,"kanhara, Tulsipur, Uttar Pradesh 271207, India","LALPUR LAIWUDDI,TULSIPUR,BALRAMPUR,Uttar Pradesh"
27.6377845,82.29905839999999,"Harraiya Satgharwa, Uttar Pradesh 271208, India","LALPUR VISHUNPUR,HARAIYA SATGHARWA,BALRAMPUR,Uttar Pradesh"
27.7147985,82.2949866,"Lambi Kohal, Uttar Pradesh, India","LAMBI KOHAL,HARAIYA SATGHARWA,BALRAMPUR,Uttar Pradesh"
22.678237,85.62731699999999,"Chakradharpur, South Eastern Railway Colony, Chakradharpur, Jharkhand 833102, India","LAUJI,CHAKRADHARPUR,PASHCHIMI SINGHBHUM,Jharkhand"
27.5181738,82.64614189999999,"Pachperwa, Uttar Pradesh 271206, India","LAUKAHWA,PACHPERWA,BALRAMPUR,Uttar Pradesh"
27.6377845,82.29905839999999,"Harraiya Satgharwa, Uttar Pradesh 271208, India","LAUKI KALA,HARAIYA SATGHARWA,BALRAMPUR,Uttar Pradesh"
27.5857692,82.3536656,"Laxmanpur, Lal Nagar, Uttar Pradesh 271208, India","LAXMANPUR,TULSIPUR,BALRAMPUR,Uttar Pradesh"
27.5857692,82.3536656,"Laxmanpur, Lal Nagar, Uttar Pradesh 271208, India","LAXMANPUR KHAIRAHNIY,HARAIYA SATGHARWA,BALRAMPUR,Uttar Pradesh"
27.4144307,82.375022,"Lilwa, Uttar Pradesh 271607, India","LILWA,BALRAMPUR,BALRAMPUR,Uttar Pradesh"
27.1077812,84.58771829999999,"Lipni, Bihar 845306, India","LIPNI,MAINATAND,PASHCHIM CHAMPARAN,Bihar"
27.5246311,82.4156829,"Tulsipur, Uttar Pradesh, India","LOHE PANIYA,TULSIPUR,BALRAMPUR,Uttar Pradesh"
27.3753252,82.1958334,"Luchuiya, Uttar Pradesh 271201, India","LUCHUIYA,BALRAMPUR,BALRAMPUR,Uttar Pradesh"
22.1316928,84.8854545,"Lathikata, Odisha 770037, India","LUNGEI,LATHIKATA,SUNDERGARH,Odisha"
26.5172661,85.5386903,"Madanpur, Bihar 843314, India","MADANPUR,DUMRA,SITAMARHI,Bihar"
27.6377845,82.29905839999999,"Harraiya Satgharwa, Uttar Pradesh 271208, India","MADARGARH,HARAIYA SATGHARWA,BALRAMPUR,Uttar Pradesh"
26.7294173,85.5727878,"Madhuban urf Madhuban Karmohna, Bihar, India","MADHUBAN URF KARMOHNA,SONBARSA,SITAMARHI,Bihar"
27.6377845,82.29905839999999,"Harraiya Satgharwa, Uttar Pradesh 271208, India","MADHYA NAGAR,HARAIYA SATGHARWA,BALRAMPUR,Uttar Pradesh"
20.5762206,83.0602998,"Madhyapur, Odisha 767026, India","MADHYAPUR,BELPADA,BOLANGIR,Odisha"
27.450474,82.6588089,"Madrahiya, Uttar Pradesh 271215, India","MADRAHIYA,PACHPERWA,BALRAMPUR,Uttar Pradesh"
27.4297064,82.17680179999999,"Mohalla Chikni, Alijanpurva, Balrampur, Uttar Pradesh 271201, India","MAHADEV ANTARPARI,HARAIYA SATGHARWA,BALRAMPUR,Uttar Pradesh"
27.4297064,82.17680179999999,"Mohalla Chikni, Alijanpurva, Balrampur, Uttar Pradesh 271201, India","MAHADEV BAKI,HARAIYA SATGHARWA,BALRAMPUR,Uttar Pradesh"
27.4618037,82.34078079999999,"Mahadeo Harihar Nagar, Uttar Pradesh 271607, India","MAHADEV HARIHARNAGAR,TULSIPUR,BALRAMPUR,Uttar Pradesh"
20.7504099,82.8627162,"Khaprakhol, Odisha 767028, India","MAHARAPADAR,KHAPRAKHOL,BOLANGIR,Odisha"
27.5246311,82.4156829,"Tulsipur, Uttar Pradesh, India","MAHDEIYA,TULSIPUR,BALRAMPUR,Uttar Pradesh"
27.6389946,82.2937175,"Harraiya Satgharwa, Uttar Pradesh 271208, India","MAHMUD NAGAR,HARAIYA SATGHARWA,BALRAMPUR,Uttar Pradesh"
27.6268676,82.634839,"Mahraj Ganj, Uttar Pradesh, India","MAHRAJ GANJ,BALRAMPUR,BALRAMPUR,Uttar Pradesh"
19.8864697,82.0727726,"Raighar, Odisha 764074, India","MAHUBHATTA,RAIGHAR,NABARANGPUR,Odisha"
27.2328611,84.4500844,"Gaunaha, Bihar 845455, India","MAHUI,GAUNAHA,PASHCHIM CHAMPARAN,Bihar"
24.202349,84.1778016,"Patan, Jharkhand 822123, India","MAHULIYA,PATAN,PALAMU,Jharkhand"
27.5659922,82.2664774,"Mainahwa, Uttar Pradesh 271208, India","MAINAHWA,TULSIPUR,BALRAMPUR,Uttar Pradesh"
27.6377845,82.29905839999999,"Harraiya Satgharwa, Uttar Pradesh 271208, India","MAJGAVAN,HARAIYA SATGHARWA,BALRAMPUR,Uttar Pradesh"
26.4409294,85.6653206,"Nanpur, Bihar 843333, India","MAJHAUR,NANPUR,SITAMARHI,Bihar"
27.3940281,82.53752240000001,"Ganwariya, Uttar Pradesh, India","MAJHGAWAN,BALRAMPUR,Uttar Pradesh"
19.6802741,82.6874942,"Majhiguda, Odisha 766019, India","MAJHIGUDA,KOKSARA,KALAHANDI,Odisha"
26.7660182,85.4318929,"Majkothwa,Majorganj, Sitamarhi, Bihar 843332, India","MAJKOTHWA,MAJORGANJ,SITAMARHI,Bihar"
19.7898364,83.787621,"Maliguda, Odisha 762105, India","MALAGUDA,KOTAGHAR,KANDHAMAL,Odisha"
26.6339819,85.71327459999999,"Sursand Malahi Rd, Bihar 843331, India","MALAHI,SURSAND,SITAMARHI,Bihar"
26.7758788,85.69741239999999,"Khairwa Malah, Bihar, India","MALAHI,PARIHAR,SITAMARHI,Bihar"
19.7875319,82.8805498,"Maliguda, Odisha 766023, India","MALIGUDA ,JUNAGARH,KALAHANDI,Odisha"
22.253078,86.04531229999999,"Jamda, Odisha 757045, India","MANBIR,JAMDA,MAYURBHANJ,Odisha"
26.8651447,84.34763210000001,"Jogapatti, Bihar 845452, India","MANGALPUR,JOGAPATTI,PASHCHIM CHAMPARAN,Bihar"
24.0357114,84.47763719999999,"Naudiha, mangalpur, Panki, Jharkhand 822122, India","MANGALPUR,PANKI,PALAMU,Jharkhand"
27.106336,84.475029,"Vill.-Dhum Nagar, Dhum Nagar Chowk, P.O. Narkatiaganj, West Champaran, Bihar 845455, India","MANGRAHARI,NARKATIAGANJ,PASHCHIM CHAMPARAN,Bihar"
24.3690508,84.1880936,"NH 98, Chhatarpur, Jharkhand 822113, India","MANHU,CHHATARPUR,PALAMU,Jharkhand"
24.1459498,84.21338759999999,"Manika, Jharkhand 822123, India","MANIKA,PATAN,PALAMU,Jharkhand"
27.1001195,83.96648859999999,"Majharia, Bihar 274802, India","MANJHARIA,BAGAHA-I,PASHCHIM CHAMPARAN,Bihar"
19.2744907,82.2406733,"Kosagumuda, Odisha 764061, India","MANKIDI,KOSAGUMUDA,NABARANGPUR,Odisha"
26.3726481,85.4927026,"Runni Saidpur Madhya, Bihar, India","MANPURRATNAULI URF,RUNNI SAIDPUR,SITAMARHI,Bihar"
19.8864697,82.0727726,"Raighar, Odisha 764074, India","MARIPARA,RAIGHAR,NABARANGPUR,Odisha"
24.7855119,82.57808779999999,"Marni, Uttar Pradesh 231210, India","MARNI,PACHPERWA,BALRAMPUR,Uttar Pradesh"
18.751105,82.4332952,"Boipariguda, Odisha 764043, India","MATHPADA,BOIPARIGUDA,KORAPUT,Odisha"
26.6153805,85.45505469999999,"Sitamarhi - Riga Rd, Bihar, India","MATHWA AZRAKBE BALUA,RIGA,SITAMARHI,Bihar"
22.6446331,85.7380843,"Khuntpani Rd., Jharkhand 833101, India","MATKOBERA,KHUNTPANI,PASHCHIMI SINGHBHUM,Jharkhand"
26.4409294,85.6653206,"Mednipur bazar nanpur, Medinipur, Bihar 843326, India","MEDNIPUR,NANPUR,SITAMARHI,Bihar"
27.1059249,84.4645184,"king group, Medraul, Bihar 845455, India","MEDRAUL,NARKATIAGANJ,PASHCHIM CHAMPARAN,Bihar"
27.4883376,82.2338812,"Mirzapur, Uttar Pradesh, India","MIRZAPUR,BALRAMPUR,BALRAMPUR,Uttar Pradesh"
27.1786851,82.5537514,"Mohd. Pur Banjerha, Uttar Pradesh, India","MOHD.PUR,BALRAMPUR,BALRAMPUR,Uttar Pradesh"
26.7994224,84.6204403,"Majhaulia, Bihar 845454, India","MOHIUDDINPUR,MAJHAULIA,PASHCHIM CHAMPARAN,Bihar"
19.664737,82.2121421,"Umerkote, Odisha 764073, India","MOHULI A/C,UMERKOTE,NABARANGPUR,Odisha"
18.8780657,82.6186292,"Mohulobhota, Odisha 764006, India","MOHULOBHOTA,JEYPORE,KORAPUT,Odisha"
27.5290248,82.4042298,"Orajhar, Uttar Pradesh 271210, India","MOORADEEH,TULSIPUR,BALRAMPUR,Uttar Pradesh"
24.4897698,86.79601819999999,"Deoghar - Dumka Rd, Mohanpur, Chopa, Jharkhand 814115, India","MORNEY,MOHANPUR,DEOGHAR,Jharkhand"
26.5316451,85.7948524,"Charaut, Bihar 843319, India","MOSIDHA,CHORAUT,SITAMARHI,Bihar"
19.4516213,82.3424763,"Motigam, Odisha, India","MOTIGAM,KOSAGUMUDA,NABARANGPUR,Odisha"
27.5181738,82.64614189999999,"Pachperwa, Uttar Pradesh 271206, India","MOTIPUR HARAHWA,PACHPERWA,BALRAMPUR,Uttar Pradesh"
20.194033,83.51696129999999,"Madanpur Rampur, Odisha 766102, India","MUDING,M.RAMPUR,KALAHANDI,Odisha"
19.0456801,82.92124620000001,"Dasmanthpur, Odisha 764028, India","MUJANG,DASMANTPUR,KORAPUT,Odisha"
27.5246311,82.4156829,"Tulsipur, Uttar Pradesh, India","MUJEHNI,TULSIPUR,BALRAMPUR,Uttar Pradesh"
27.0745405,82.3785145,"Munda Mafi, Sadulla nager, Rehra Bazar, Uttar Pradesh 271307, India","MUNDA MAFI,REHRA BAZAR,BALRAMPUR,Uttar Pradesh"
19.8864697,82.0727726,"Raighar, Odisha 764074, India","MUNDIBEDA,RAIGHAR,NABARANGPUR,Odisha"
24.0376814,84.2094347,"Lesliganj, Jharkhand 822118, India","MUNDRIYA,LESLIGANJ,PALAMU,Jharkhand"
24.3587866,84.2553204,"Chhatarpur Rd, Munkeri, Jharkhand 822113, India","MUNKERI,CHHATARPUR,PALAMU,Jharkhand"
27.1257029,84.2989707,"Murera, Bihar, India","MURERA,RAMNAGAR,PASHCHIM CHAMPARAN,Bihar"
26.8477011,85.5785157,"Sonbarsa, Bihar, India","MURHA DIH,SONBARSA,SITAMARHI,Bihar"
26.9659355,84.4474596,"Mushahari Senwaria, Bihar 845451, India","MUSHAHARI,LAURIYA,PASHCHIM CHAMPARAN,Bihar"
26.2216932,85.1194091,"Mushari, Bihar, India","MUSHARI TOLA MAHANA,MAJHAULIA,PASHCHIM CHAMPARAN,Bihar"
27.2906158,82.4745988,"Nagaria, Uttar Pradesh 271604, India","NAGARIYA,UTRAULA,BALRAMPUR,Uttar Pradesh"
19.7904925,82.7973983,"Nandagaon, Odisha 766023, India","NANDAGAON,DHARAMGARH,KALAHANDI,Odisha"
27.5224298,82.21757749999999,"Nanhuapur, Uttar Pradesh 271208, India","NANHUAPUR,TULSIPUR,BALRAMPUR,Uttar Pradesh"
27.4846367,82.6561085,"Narayanpur, Uttar Pradesh 271215, India","NARAYAN PUR,BALRAMPUR,BALRAMPUR,Uttar Pradesh"
27.1049072,82.8647354,"Thumhwa, Thumhwa Bhaiya, Uttar Pradesh 272153, India","NARAYANPUR THUMHWA,PACHPERWA,BALRAMPUR,Uttar Pradesh"
27.1324146,84.05938739999999,"naraynapur, Bagaha, Bihar 845105, India","NARWAL,BAGAHA-II (SIDHAW),PASHCHIM CHAMPARAN,Bihar"
24.3733078,84.1929949,"Bara, Palamu, NH-98, Aurangabad, Road, Chhatarpur, Jharkhand 822113, India","NASHO,CHHATARPUR,PALAMU,Jharkhand"
27.4034122,84.11497969999999,"Naurangia Done, Bihar 845105, India","NAURANGIA,RAMNAGAR,PASHCHIM CHAMPARAN,Bihar"
26.7613173,84.2476356,"Koirpatti, Thakrahan, Bihar 845459, India","NAUTAN,THAKARAHAN,PASHCHIM CHAMPARAN,Bihar"
27.531921,82.418326,"Titu Cplx, Bypass Rd, Tulsipur, Gonda, Balrampur, Uttar Pradesh 271208, India","NAUWWA,TULSIPUR,BALRAMPUR,Uttar Pradesh"
24.2518377,86.8107363,"Nawadih, Jharkhand 814146, India","NAWADIH,SARATH,DEOGHAR,Jharkhand"
22.4112236,85.765722,"Jhinkpani, Jorapokhar, Jharkhand 833215, India","NAWAGAON,JHINKPANI,PASHCHIMI SINGHBHUM,Jharkhand"
24.0046468,84.4196384,"Nawarh surjun Nawagarh.po.PS.panki nawagarh surjaun, Panki, Jharkhand 822122, India","NAWAGARH,PANKI,PALAMU,Jharkhand"
22.2089216,85.6425493,"Jagannathpur, Jharkhand 833203, India","NAYAGOAN,JAGANNATHPUR,PASHCHIMI SINGHBHUM,Jharkhand"
19.1404296,82.318057,"Kotapad, Odisha 764058, India","NEHURUPALI,KOTPAD,KORAPUT,Odisha"
27.4307473,82.1805203,"Balrampur, Uttar Pradesh 271201, India","NETWA,BALRAMPUR,BALRAMPUR,Uttar Pradesh"
27.8922502,81.6487655,"Nawabgunj Rd, Chaugorwa, Uttar Pradesh 271865, India","NEWALGANJ,HARAIYA SATGHARWA,BALRAMPUR,Uttar Pradesh"
24.0542642,84.4579579,"Nima Chak, Jharkhand 822122, India","NIMACHAK,PANKI,PALAMU,Jharkhand"
21.7399401,86.8431671,"Betnoti, Odisha 757025, India","NUAGAN,BETNOTI,MAYURBHANJ,Odisha"
27.5246311,82.4156829,"Tulsipur, Uttar Pradesh, India","OARAHIYA,TULSIPUR,BALRAMPUR,Uttar Pradesh"
24.3752883,84.056387,"Obra, Jharkhand 822120, India","OBRA,PANDU,PALAMU,Jharkhand"
19.0456801,82.92124620000001,"Dasmanthpur, Odisha 764028, India","ODAPUR,DASMANTPUR,KORAPUT,Odisha"
24.3733078,84.1929949,"Bara, Palamu, NH-98, Aurangabad, Road, Chhatarpur, Jharkhand 822113, India","OKARAHA,CHHATARPUR,PALAMU,Jharkhand"
27.5225063,82.40348709999999,"Orajhar, Uttar Pradesh, India","ORAJHAR,TULSIPUR,BALRAMPUR,Uttar Pradesh"
24.0731432,84.2553527,"Oria kalan, Jharkhand 822118, India","ORIYA KALA,LESLIGANJ,PALAMU,Jharkhand"
26.1436698,81.4100403,"Deeh, Uttar Pradesh 229310, India","OVARI DEEH,REHRA BAZAR,BALRAMPUR,Uttar Pradesh"
27.531921,82.418326,"Titu Cplx, Bypass Rd, Tulsipur, Gonda, Balrampur, Uttar Pradesh 271208, India","PACHAPAKARI KALA,TULSIPUR,BALRAMPUR,Uttar Pradesh"
26.7497097,85.4273082,"Majorganj, Bihar, India","PACHHARWA,MAJORGANJ,SITAMARHI,Bihar"
22.6712078,85.59336449999999,"Padmapur, Jharkhand 833102, India","PADAMPUR,CHAKRADHARPUR,PASHCHIMI SINGHBHUM,Jharkhand"
24.2105493,84.2969971,"Pakaria, Jharkhand 822113, India","PAKARIA,PANKI,PALAMU,Jharkhand"
27.1330331,84.4828838,"Pakri, Bihar 845455, India","PAKRI,LAURIYA,PASHCHIM CHAMPARAN,Bihar"
27.5120117,82.6419317,"Pachperwa, Uttar Pradesh 271206, India","PAKRI JEETPUR,PACHPERWA,BALRAMPUR,Uttar Pradesh"
26.8874897,84.5241849,"Pakrihar, Bihar 845450, India","PAKRIHAR,CHANPATIA,PASHCHIM CHAMPARAN,Bihar"
20.2495938,83.41107319999999,"Palam, Odisha, India","PALAM,NARLA,KALAHANDI,Odisha"
24.2345989,86.8383485,"Sarath, Jharkhand 814149, India","PALMA,SARATH,DEOGHAR,Jharkhand"
24.3690508,84.1880936,"NH 98, Chhatarpur, Jharkhand 822113, India","PALWA,CHHATARPUR,PALAMU,Jharkhand"
26.3784069,85.5946503,"Pandaul Buzurg, Bihar 843326, India","PANDAUL,NANPUR,SITAMARHI,Bihar"
22.2461088,86.59432029999999,"Saraskana, Odisha 757051, India","PANDRA,SARASKANA,MAYURBHANJ,Odisha"
22.6813546,85.20384419999999,"Rajgaon, Jharkhand 833103, India","PANDUWA,GUDRI,PASHCHIMI SINGHBHUM,Jharkhand"
22.3353462,85.92904589999999,"Chaibasa-Bharbharia-Kumardungi Rd, Roladih, Jharkhand 833201, India","PANGA,MANJHARI,PASHCHIMI SINGHBHUM,Jharkhand"
19.1759092,83.4184915,"Nehru Nagar, Rayagada, Odisha 765001, India","PANGALELERI,RAYAGADA,RAYAGADA,Odisha"
24.4870089,83.944655,"Haidar Nagar, Jharkhand 822115, India","PANTI,HAIDARNAGAR,PALAMU,Jharkhand"
19.8864697,82.0727726,"Ganjpara, Raighar, Odisha 764074, India","PARACHIPARA,RAIGHAR,NABARANGPUR,Odisha"
27.5396622,82.4238122,"Paraspar Karaunda, Uttar Pradesh 271210, India","PARASPUR KARAUNDA,TULSIPUR,BALRAMPUR,Uttar Pradesh"
27.4284,82.1831,"Govind Bagh, Balrampur., 80/1, Khasra No. 2406, Mohalla Naousera, Balrampur, Uttar Pradesh 271201, India","PARSA,BALRAMPUR,BALRAMPUR,Uttar Pradesh"
27.1785515,84.5981913,"Parsauni, Bihar 845306, India","PARSAUNI,MAINATAND,PASHCHIM CHAMPARAN,Bihar"
22.3366053,85.9292238,"Chaibasa-Bharbharia-Kumardungi Rd, Roladih, Jharkhand 833201, India","PARSI,MANJHARI,PASHCHIMI SINGHBHUM,Jharkhand"
24.0894321,84.0524237,"Parsiya, Jharkhand 822110, India","PARSIYA,PANKI,PALAMU,Jharkhand"
21.7722102,87.0311931,"Parulia, Odisha, India","PARULIA,RASGOVINDPUR,MAYURBHANJ,Odisha"
22.6446331,85.7380843,"Khuntpani Rd., Jharkhand 833101, India","PATAHATU,KHUNTPANI,PASHCHIMI SINGHBHUM,Jharkhand"
22.5075703,85.3769159,"Goilkera, Jharkhand 833103, India","PATANIYA,GOELKERA,PASHCHIMI SINGHBHUM,Jharkhand"
22.2132074,85.87676739999999,"Kumardungi, Jharkhand 833214, India","PATARHATU,KUMARDUNGI,PASHCHIMI SINGHBHUM,Jharkhand"
24.4870089,83.944655,"Haidar Nagar, Jharkhand 822115, India","PATARIA,HAIDARNAGAR,PALAMU,Jharkhand"
26.9445192,84.53794549999999,"Chanpatia, Bihar 845449, India","PATARKHA NAURANGIA,CHANPATIA,PASHCHIM CHAMPARAN,Bihar"
19.2313149,82.5486923,"Nowrangpur, Odisha 764059, India","PATHORLOSA,NANDAHANDI,NABARANGPUR,Odisha"
27.531921,82.418326,"Titu Cplx, Bypass Rd, Tulsipur, Gonda, Balrampur, Uttar Pradesh 271208, India","PATOHAKOT,TULSIPUR,BALRAMPUR,Uttar Pradesh"
19.3544348,82.5280537,"Patroguda, Odisha 764071, India","PATROGUDA,PAPADAHANDI,NABARANGPUR,Odisha"
18.8821885,82.4744613,"Phampuni Rd, Jeypore, Odisha 764002, India","PHAMPUNI,JEYPORE,KORAPUT,Odisha"
26.8152349,85.5669992,"Pharchhahian, Bihar 843330, India","PHARCHHAHIAN,SONBARSA,SITAMARHI,Bihar"
26.685918,84.45664579999999,"Fuliyakhar, Bihar, India","PHULIA KHAND,BAIRIA,PASHCHIM CHAMPARAN,Bihar"
26.7133642,84.4448348,"Phul Jharia, Bihar 845438, India","PHULJHARIA,BAIRIA,PASHCHIM CHAMPARAN,Bihar"
27.2229994,84.3680054,"Phulwaria, Bihar, India","PHULWARIA,RAMNAGAR,PASHCHIM CHAMPARAN,Bihar"
27.6402818,82.23931499999999,"Phulwaria, Uttar Pradesh, India","PHULWARIYA,HARAIYA SATGHARWA,BALRAMPUR,Uttar Pradesh"
19.1404296,82.318057,"Kotapad, Odisha 764058, India","PHUPUGAM,KOTPAD,KORAPUT,Odisha"
21.8593131,86.0045031,"Pichhuli, Odisha 757036, India","PICHHULI,KARANJIA,MAYURBHANJ,Odisha"
22.3366053,85.9292238,"Chaibasa-Bharbharia-Kumardungi Rd, Roladih, Jharkhand 833201, India","PILKA,MANJHARI,PASHCHIMI SINGHBHUM,Jharkhand"
26.7421034,85.50843479999999,"Pipra Ghat, Bihar, India","PIPRA GHAT,SONBARSA,SITAMARHI,Bihar"
19.0517161,82.5486131,"Borigumma, Odisha 764056, India","PODAPADAR,BORIGUMMA,KORAPUT,Odisha"
19.3568651,83.1153029,"Kasipur, Odisha 765015, India","PODAPADI,KASIPUR,RAYAGADA,Odisha"
27.5578591,82.3831561,"Pooranpur, Uttar Pradesh, India","POORANPUR,TULSIPUR,BALRAMPUR,Uttar Pradesh"
27.531921,82.418326,"Titu Cplx, Bypass Rd, Tulsipur, Gonda, Balrampur, Uttar Pradesh 271208, India","POORE WAKASH,TULSIPUR,BALRAMPUR,Uttar Pradesh"
27.6835171,82.2827698,"Pranpur, Uttar Pradesh, India","PRANPUR,HARAIYA SATGHARWA,BALRAMPUR,Uttar Pradesh"
26.8651447,84.34763210000001,"Jogapatti, Bihar 845452, India","PRAYAGWA,JOGAPATTI,PASHCHIM CHAMPARAN,Bihar"
27.577532,82.36959879999999,"Prem Nagar, Uttar Pradesh 271208, India","PREMNAGAR,TULSIPUR,BALRAMPUR,Uttar Pradesh"
19.6235833,82.25153929999999,"Pujariguda, Odisha, India","PUJARIGUDA,UMERKOTE,NABARANGPUR,Odisha"
18.56403,82.7374093,"Nandapur, Odisha 764037, India","PUJARIPUT,NANDAPUR,KORAPUT,Odisha"
22.2328242,84.4559896,"Kutra, Odisha 770018, India","PURKAPALI,KUTRA,SUNDERGARH,Odisha"
24.0562671,83.9241376,"Rabda, Jharkhand, India","RABDA,NAWA BAZAR,PALAMU,Jharkhand"
24.4390076,84.28976,"Rabdi, Jharkhand 822113, India","RABDI,HARIHARGANJ,PALAMU,Jharkhand"
27.4288227,82.171455,"Balrampur, Uttar Pradesh 271201, India","RACHAURA,BALRAMPUR,BALRAMPUR,Uttar Pradesh"
26.7497097,85.4273082,"Majorganj, Bihar, India","RAGHUNATHPUR,MAJORGANJ,SITAMARHI,Bihar"
27.1830686,82.2765909,"PRATHMIK KENDRA, near BLOCK, Rehra Bazar, Rehra, Uttar Pradesh 271306, India","RAHMATPUR,REHRA BAZAR,BALRAMPUR,Uttar Pradesh"
26.3726481,85.4927026,"Runni Saidpur Madhya, Bihar, India","RAIN BISHUNI,RUNNI SAIDPUR,SITAMARHI,Bihar"
26.4409294,85.6653206,"Nanpur, Bihar 843333, India","RAIPUR,NANPUR,SITAMARHI,Bihar"
26.7994224,84.6204403,"Majhaulia, Bihar 845454, India","RAJABHAR,MAJHAULIA,PASHCHIM CHAMPARAN,Bihar"
24.3676627,84.1881228,"Chhatarpur, Jharkhand 822113, India","RAJAHA,CHHATARPUR,PALAMU,Jharkhand"
26.7538775,84.4481158,"Bairia, Bihar 845438, India","RAJGHAT,BAIRIA,PASHCHIM CHAMPARAN,Bihar"
24.1688731,84.03921079999999,"Rajhara, Jharkhand 822124, India","RAJHARA,LESLIGANJ,PALAMU,Jharkhand"
19.2744907,82.2406733,"Kosagumuda, Odisha 764061, India","RAJODA,KOSAGUMUDA,NABARANGPUR,Odisha"
23.927194,84.2512296,"Thema, Jharkhand 822126, India","RAKHIKHURD,SATBARWA,PALAMU,Jharkhand"
24.2747622,86.6554041,"Deoghar - Sarwan Rd, Jharkhand, India","RAKTI,SARWAN,DEOGHAR,Jharkhand"
27.5362044,82.394891,"Harraiya - Amari Rd, DEVIPATAN, Tulsipur, Uttar Pradesh 271208, India","RAM SWARUP PURWA,TULSIPUR,BALRAMPUR,Uttar Pradesh"
24.386719,84.1988922,"Jobna alias Ramgarh, Jharkhand 822113, India","RAMGARH,CHHATARPUR,PALAMU,Jharkhand"
27.531921,82.418326,"Titu Cplx, Bypass Rd, Tulsipur, Gonda, Balrampur, Uttar Pradesh 271208, India","RAMGARH MAITAHWA,TULSIPUR,BALRAMPUR,Uttar Pradesh"
26.8246877,85.563783,"Ramnagar Rasulpur Az Rakbe, Bihar, India","RAMNAGAR RASULPURAZ,SONBARSA,SITAMARHI,Bihar"
22.3766473,84.0511025,"Rampur, Odisha 770015, India","RAMPUR,BALISANKARA,SUNDERGARH,Odisha"
27.5246311,82.4156829,"Tulsipur, Uttar Pradesh, India","RAMPUR,TULSIPUR,BALRAMPUR,Uttar Pradesh"
27.3937043,82.16119119999999,"Madarsha ahle sunnet badiul uloom rampur, Khagaijot, Uttar Pradesh 271201, India","RAMPUR KHAGAIJOT,BALRAMPUR,BALRAMPUR,Uttar Pradesh"
27.5181738,82.64614189999999,"Pachperwa, Uttar Pradesh 271206, India","RAMWAPUR,PACHPERWA,BALRAMPUR,Uttar Pradesh"
24.480036,83.955242,"Ratanbigha, Jharkhand 822115, India","RATANBIGHA,HAIDARNAGAR,PALAMU,Jharkhand"
26.7994224,84.6204403,"Majhaulia, Bihar 845454, India","RATANMALA,MAJHAULIA,PASHCHIM CHAMPARAN,Bihar"
26.7497097,85.4273082,"Majorganj, Bihar, India","RATANPUR,MAJORGANJ,SITAMARHI,Bihar"
23.983915,84.39756709999999,"Ratanpur, Jharkhand 822122, India","RATANPUR,PANKI,PALAMU,Jharkhand"
27.6020548,82.3912892,"Ratanpur Azabnagar, Uttar Pradesh 271208, India","RATANPUR,HARAIYA SATGHARWA,BALRAMPUR,Uttar Pradesh"
27.6377845,82.29905839999999,"Harraiya Satgharwa, Uttar Pradesh 271208, India","RATANWA,HARAIYA SATGHARWA,BALRAMPUR,Uttar Pradesh"
26.4226094,85.4650817,"Rampur, Runnisaidpur, Bihar 843316, India","RAYPUR,RUNNI SAIDPUR,SITAMARHI,Bihar"
27.5181738,82.64614189999999,"Pachperwa, Uttar Pradesh 271206, India","REHRA CHAUKI,PACHPERWA,BALRAMPUR,Uttar Pradesh"
22.5075703,85.3769159,"Goilkera, Jharkhand 833103, India","RELA,GOELKERA,PASHCHIMI SINGHBHUM,Jharkhand"
22.3589691,85.124597,"Rengalbera, Jharkhand 833104, India","RENGALBERA,GOELKERA,PASHCHIMI SINGHBHUM,Jharkhand"
21.0459072,83.39229279999999,"Rengali, Odisha 767022, India","RENGALI,LOISINGHA,BOLANGIR,Odisha"
19.6683878,82.7043623,"Koksara, Odisha 766019, India","RENGALPALI,KOKSARA,KALAHANDI,Odisha"
23.9268683,84.2568529,"Satbarwa, Jharkhand 822126, India","REWARATU,SATBARWA,PALAMU,Jharkhand"
27.5329035,82.4083081,"Tulsipur, Uttar Pradesh 271210, India","ROOPNAGAR,TULSIPUR,BALRAMPUR,Uttar Pradesh"
22.8642957,85.3265449,"Bandgaon, Jharkhand 835216, India","ROWAULI,BANDGAON,PASHCHIMI SINGHBHUM,Jharkhand"
26.4409294,85.6653206,"Nanpur, Bihar 843333, India","RUDAULI,NANPUR,SITAMARHI,Bihar"
24.3733078,84.1929949,"Bara, Palamu, NH-98, Aurangabad, Road, Chhatarpur, Jharkhand 822113, India","RUDAWA,CHHATARPUR,PALAMU,Jharkhand"
26.7994224,84.6204403,"Majhaulia, Bihar 845454, India","RULHI NIZAMAT,MAJHAULIA,PASHCHIM CHAMPARAN,Bihar"
26.7467097,85.3543193,"Rusulpur, Bihar, India","RUSULPUR,MAJORGANJ,SITAMARHI,Bihar"
27.072653,84.3528546,"Sabeya, Bihar 845103, India","SABEYA KHURD,CHANPATIA,PASHCHIM CHAMPARAN,Bihar"
27.5322145,82.57044169999999,"822, Vill. Bakauli Dalpur Post. Gainsari, Tulsipur, Uttar Pradesh 271210, India","SADHWAPUR,GAINSARI,BALRAMPUR,Uttar Pradesh"
24.3492004,84.1842216,"Sarma, Jharkhand 822113, India","SADMA,CHHATARPUR,PALAMU,Jharkhand"
26.6994151,85.69741239999999,"Sahargawan, Bihar 843324, India","SAHARGAWAN,PARIHAR,SITAMARHI,Bihar"
26.6400936,85.57632989999999,"Bathnaha, Bihar 843322, India","SAHIARA,BATHNAHA,SITAMARHI,Bihar"
27.7316749,82.1887526,"Tulsipur - Sirsiya - Bilaspur Rd, Binoohni Kalan, Uttar Pradesh 271207, India","SAHIJNA,HARAIYA SATGHARWA,BALRAMPUR,Uttar Pradesh"
24.1977438,84.1929612,"Sakaldipa, Jharkhand 822123, India","SAKALDIPA,PANKI,PALAMU,Jharkhand"
27.2897857,84.2989707,"Sakhuani, Bihar 845106, India","SAKHUANI,RAMNAGAR,PASHCHIM CHAMPARAN,Bihar"
27.6439753,82.20127,"Sakari, Uttar Pradesh 271207, India","SAKRI,HARAIYA SATGHARWA,BALRAMPUR,Uttar Pradesh"
27.4608667,82.0829287,"Samda, Uttar Pradesh 271201, India","SAMDA,BALRAMPUR,BALRAMPUR,Uttar Pradesh"
27.1063462,84.4749925,"Narkatiaganj, Bihar 845455, India","SAMHUTA,NARKATIAGANJ,PASHCHIM CHAMPARAN,Bihar"
22.2344512,84.7791067,"Brahmani Tarang, Vedvyas, Rourkela, Odisha 769041, India","SANBRAHMANI TARANGA,LATHIKATA,SUNDERGARH,Odisha"
27.6565068,82.2949866,"Lauki Kalan, Uttar Pradesh 271208, India","SANGEETPUR,HARAIYA SATGHARWA,BALRAMPUR,Uttar Pradesh"
24.2366838,86.8389761,"Sarath, Jharkhand 814149, India","SANGRAMDIH,SARATH,DEOGHAR,Jharkhand"
22.3366053,85.9292238,"Chaibasa-Bharbharia-Kumardungi Rd, Roladih, Jharkhand 833201, India","SANRUNJU,MANJHARI,PASHCHIMI SINGHBHUM,Jharkhand"
27.1380786,82.3424763,"Sarai Khas, Uttar Pradesh, India","SARAI KHAS,REHRA BAZAR,BALRAMPUR,Uttar Pradesh"
20.5873583,83.344206,"Sarasmal, Odisha 767029, India","SARASMAL,DEOGAON,BOLANGIR,Odisha"
26.6827199,85.6682096,"Sardal Patti, Bihar 843324, India","SARDALPATTI,PARIHAR,SITAMARHI,Bihar"
22.2228469,85.8765567,"Kharbandh,Via, Kolebira - Hat Gamharia Rd, Kumardungi, Jharkhand 824311, India","SARDIHA,HATGAMAHARIA,PASHCHIMI SINGHBHUM,Jharkhand"
27.5678705,82.1958334,"Sarkahwa, Uttar Pradesh 271861, India","SARKAHWA,HARAIYA SATGHARWA,BALRAMPUR,Uttar Pradesh"
24.5421988,84.2792317,"Hariharganj, Jharkhand, India","SARSOT,HARIHARGANJ,PALAMU,Jharkhand"
26.747607,85.543195,"Sarwarpur, Bihar 843317, India","SARWARPUR,SONBARSA,SITAMARHI,Bihar"
27.4850399,82.7298251,"Satani, Uttar Pradesh 272201, India","SATNI,PACHPERWA,BALRAMPUR,Uttar Pradesh"
22.1619521,86.1704073,"Kusumi, Odisha 757050, India","SATPOUTIA,KUSUMI,MAYURBHANJ,Odisha"
27.4288227,82.171455,"Balrampur, Uttar Pradesh 271201, India","SATRAHIYA,HARAIYA SATGHARWA,BALRAMPUR,Uttar Pradesh"
26.7188046,85.7063946,"Saur Bhaur, Bihar 843324, India","SAUR BHAUR,PARIHAR,SITAMARHI,Bihar"
22.5117684,85.3734992,"Goilkera, Jharkhand 833103, India","SAYTABA,GOELKERA,PASHCHIMI SINGHBHUM,Jharkhand"
27.5290248,82.4042298,"Orajhar, Uttar Pradesh 271210, India","SEHRIWA,TULSIPUR,BALRAMPUR,Uttar Pradesh"
27.4308339,82.3017728,"Balrampur, Uttar Pradesh, India","SEKHUIYA BHYA,BALRAMPUR,BALRAMPUR,Uttar Pradesh"
25.2559785,83.5909332,"Labedaha, Bihar 821110, India","SEMARA LABEDAHA,MADHUBANI,PASHCHIM CHAMPARAN,Bihar"
24.3410949,83.8348165,"Untari Road, Sirha, Jharkhand 822120, India","SEMARI,UNTARI ROAD,PALAMU,Jharkhand"
27.5943171,82.4901659,"Semri, Uttar Pradesh 271210, India","SEMARI,TULSIPUR,BALRAMPUR,Uttar Pradesh"
26.7994224,84.6204403,"Majhaulia, Bihar 845454, India","SEMRA BIRIT,MAJHAULIA,PASHCHIM CHAMPARAN,Bihar"
26.7994224,84.6204403,"Majhaulia, Bihar 845454, India","SEMRA GHAT,MAJHAULIA,PASHCHIM CHAMPARAN,Bihar"
27.5290248,82.4042298,"Orajhar, Uttar Pradesh 271210, India","SEMRA GULRIHA,TULSIPUR,BALRAMPUR,Uttar Pradesh"
26.8651447,84.34763210000001,"Jogapatti, Bihar 845452, India","SEMRI BHAWANIPUR,JOGAPATTI,PASHCHIM CHAMPARAN,Bihar"
27.0850873,84.3094955,"Serahwa, Bihar, India","SERAHWA,RAMNAGAR,PASHCHIM CHAMPARAN,Bihar"
27.4277007,82.1719438,"MDR 10E, near Zilla Panchayat Office, Balrampur, Uttar Pradesh 271201, India","SHAHDEEH,BALRAMPUR,BALRAMPUR,Uttar Pradesh"
27.531921,82.418326,"Titu Cplx, Bypass Rd, Tulsipur, Gonda, Balrampur, Uttar Pradesh 271208, India","SHAKHI RATE,TULSIPUR,BALRAMPUR,Uttar Pradesh"
26.9546481,84.54032459999999,"Chanpatia Station Rd, Chanpatia, Bihar 845449, India","SHAMBHUAPUR,CHANPATIA,PASHCHIM CHAMPARAN,Bihar"
26.7994224,84.6204403,"Majhaulia, Bihar 845454, India","SHAMPUR,MAJHAULIA,PASHCHIM CHAMPARAN,Bihar"
27.6739712,82.3207707,"Shankarpur, Uttar Pradesh 271208, India","SHANKAR PUR,TULSIPUR,BALRAMPUR,Uttar Pradesh"
27.4554312,82.1285202,"Shekharpur, Uttar Pradesh 271201, India","SHESHARPUR,BALRAMPUR,BALRAMPUR,Uttar Pradesh"
27.6377845,82.29905839999999,"Harraiya Satgharwa, Uttar Pradesh 271208, India","SHIVA NAGAR,HARAIYA SATGHARWA,BALRAMPUR,Uttar Pradesh"
27.4762546,82.3316244,"Shiva Nagar, Uttar Pradesh, India","SHIVA NAGAR,TULSIPUR,BALRAMPUR,Uttar Pradesh"
27.6377845,82.29905839999999,"Harraiya Satgharwa, Uttar Pradesh 271208, India","SHRI NAGAR,HARAIYA SATGHARWA,BALRAMPUR,Uttar Pradesh"
26.6139862,84.4959985,"Shyampur Kotaraha, Bihar, India","SHYAMPUR KOTRAHA,NAUTAN,PASHCHIM CHAMPARAN,Bihar"
22.6840627,85.2114218,"Gudri, Jharkhand 833103, India","SIDMA,GUDRI,PASHCHIMI SINGHBHUM,Jharkhand"
22.452488,85.9443553,"Tantnagar, Jharkhand 833204, India","SIDMA,TANTNAGAR,PASHCHIMI SINGHBHUM,Jharkhand"
24.3241811,83.96119639999999,"Pandu, Jharkhand 822124, India","SIHALDEY,PANDU,PALAMU,Jharkhand"
26.1573404,83.45768609999999,"Bojhi, Uttar Pradesh 275301, India","SIKANDER BOJHI,HARAIYA SATGHARWA,BALRAMPUR,Uttar Pradesh"
19.5819712,82.0761215,"Silati, Odisha 764073, India","SILATI,UMERKOTE,NABARANGPUR,Odisha"
24.4870089,83.944655,"Haidar Nagar, Jharkhand 822115, India","SIMARSOT,HAIDARNAGAR,PALAMU,Jharkhand"
22.8642957,85.3265449,"Bandgaon, Jharkhand 835216, India","SINDRIBERA,BANDGAON,PASHCHIMI SINGHBHUM,Jharkhand"
27.3998698,82.42923119999999,"Singhwapur, Uttar Pradesh, India","SINGHWAPUR,BALRAMPUR,BALRAMPUR,Uttar Pradesh"
20.633769,83.4336719,"Sinkhaman, Odisha 767029, India","SINKHAMAN,BALANGIR,BOLANGIR,Odisha"
20.714729,83.48989859999999,"Gandhi Nagar Para, Balangir, Odisha 767001, India","SIRABAHAL,DEOGAON,BOLANGIR,Odisha"
27.4288227,82.171455,"Balrampur, Uttar Pradesh 271201, India","SIRAHIYA,HARAIYA SATGHARWA,BALRAMPUR,Uttar Pradesh"
27.1175699,84.3883717,"Serahawa, Bihar, India","SIRAHWA,NARKATIAGANJ,PASHCHIM CHAMPARAN,Bihar"
20.1353735,84.0074882,"Nuagam, Odisha 762102, India","SIRINGIA,K.NUAGAM,KANDHAMAL,Odisha"
27.405614,82.3207707,"Siria, Uttar Pradesh 271607, India","SIRIYA,BALRAMPUR,BALRAMPUR,Uttar Pradesh"
19.6829261,82.2079771,"Umerkote - Sirliguda Rd, Odisha 764073, India","SIRLIGUDA,UMERKOTE,NABARANGPUR,Odisha"
27.4979617,82.5158778,"Sirsihwa, Uttar Pradesh 271210, India","SIRSIHWA,PACHPERWA,BALRAMPUR,Uttar Pradesh"
27.1116226,84.53532469999999,"Sisai, Bihar, India","SISAI,NARKATIAGANJ,PASHCHIM CHAMPARAN,Bihar"
27.5945346,82.6577963,"Siswa, Uttar Pradesh, India","SISWA,PACHPERWA,BALRAMPUR,Uttar Pradesh"
26.8893615,84.51566489999999,"Siswania, Bihar 845450, India","SISWANIA,CHANPATIA,PASHCHIM CHAMPARAN,Bihar"
19.5080131,82.14144379999999,"Siuni, Odisha 764072, India","SIUNI,UMERKOTE,NABARANGPUR,Odisha"
24.0376814,84.2094347,"Lesliganj, Jharkhand 822118, India","SOHGARA,LESLIGANJ,PALAMU,Jharkhand"
27.2168016,84.377861,"Sohsa, Bihar 845455, India","SOHSA,RAMNAGAR,PASHCHIM CHAMPARAN,Bihar"
27.4011021,82.23931499999999,"Sonar, Uttar Pradesh 271201, India","SONAR,BALRAMPUR,BALRAMPUR,Uttar Pradesh"
26.6218559,85.6139333,"Sondehi, Bihar 843322, India","SONDEHI,SURSAND,SITAMARHI,Bihar"
27.4288227,82.171455,"Balrampur, Uttar Pradesh 271201, India","SONEPUR II,HARAIYA SATGHARWA,BALRAMPUR,Uttar Pradesh"
22.3730219,85.19717630000001,"Manoharpur, Jharkhand 833104, India","SONPOKHRI,MANOHARPUR,PASHCHIMI SINGHBHUM,Jharkhand"
24.202349,84.1778016,"Patan, Jharkhand 822123, India","SONPURWA,PATAN,PALAMU,Jharkhand"
22.4015222,86.08362869999999,"Bahalda, Odisha, India","SOSO,BAHALDA,MAYURBHANJ,Odisha"
27.5362044,82.394891,"Harraiya - Amari Rd, DEVIPATAN, Tulsipur, Uttar Pradesh 271208, India","SUDARSHAN JOT,TULSIPUR,BALRAMPUR,Uttar Pradesh"
27.6565068,82.2949866,"Lauki Kalan, Uttar Pradesh 271208, India","SUGGANAGAR LAHRI,HARAIYA SATGHARWA,BALRAMPUR,Uttar Pradesh"
26.3886633,85.5135328,"Runni Saidpur Station Road, Sitamarhi District, Runni Saidpur Madhya, Bihar 843328, India","SUHAIGARH,RUNNI SAIDPUR,SITAMARHI,Bihar"
24.26355,86.8747223,"Sukhjora, Jharkhand 814146, India","SUKHJORA,SARATH,DEOGHAR,Jharkhand"
19.664737,82.2121421,"Umerkote, Odisha 764073, India","SUKIGAM,UMERKOTE,NABARANGPUR,Odisha"
22.2507413,84.9959227,"Bisra, Odisha 770036, India","SUKUDA,BISRA,SUNDERGARH,Odisha"
26.5071903,85.3833703,"Parsauni chowck new market, Bhagwanpur - Belsand Rd, Dhankaul, Bihar 843325, India","SUNDARGAMA,PARSAUNI,SITAMARHI,Bihar"
20.7175821,83.51301769999999,"Puintala, Odisha 767001, India","SURDA,PUINTALA,BOLANGIR,Odisha"
24.2633985,84.4034738,"Sarguja, Jharkhand 822113, India","SURGUJA,MANATU,PALAMU,Jharkhand"
27.2328611,84.4500844,"Gaunaha, Bihar 845455, India","TAHKAUL,GAUNAHA,PASHCHIM CHAMPARAN,Bihar"
22.1316928,84.8854545,"Lathikata, Odisha 770037, India","TAINSER,LATHIKATA,SUNDERGARH,Odisha"
27.1837596,82.2784956,"Rehra, Uttar Pradesh 271306, India","TAKIYA MOHABBAT JOT,REHRA BAZAR,BALRAMPUR,Uttar Pradesh"
22.360571,84.0986459,"Talsara, Odisha, India","TALSARA,SUNDARGARH,SUNDERGARH,Odisha"
24.2775877,84.1023541,"Palamu, Jharkhand 822113, India","TAMDAGA,NAWA BAZAR,PALAMU,Jharkhand"
22.2132074,85.87676739999999,"Kumardungi, Jharkhand 833214, India","TANGAR,KUMARDUNGI,PASHCHIMI SINGHBHUM,Jharkhand"
22.1604578,85.5069,"Kolebira - Hat Gamharia Rd, Noamundi, Jharkhand 833217, India","TANKURA,NOAMUNDI,PASHCHIMI SINGHBHUM,Jharkhand"
19.2760693,82.5267009,"Taragam, Odisha, India","TARAGAM,UMERKOTE,NABARANGPUR,Odisha"
22.1604578,85.5069,"Kolebira - Hat Gamharia Rd, Noamundi, Jharkhand 833217, India","TARAYA,NOAMUNDI,PASHCHIMI SINGHBHUM,Jharkhand"
24.3746769,84.1936203,"Chhatarpur, Jharkhand 822113, India","TARUDAAG,CHHATARPUR,PALAMU,Jharkhand"
19.9047432,82.8418483,"Telipalas, Odisha, India","TELIPALAS,DHARAMGARH,KALAHANDI,Odisha"
27.6092822,82.10334639999999,"Ratanpur, Uttar Pradesh 271861, India","TELIYA RATANPUR,REHRA BAZAR,BALRAMPUR,Uttar Pradesh"
22.3366053,85.9292238,"Chaibasa-Bharbharia-Kumardungi Rd, Roladih, Jharkhand 833201, India","TENGRA,MANJHARI,PASHCHIMI SINGHBHUM,Jharkhand"
19.0517161,82.5486131,"Borigumma, Odisha 764056, India","TENKAR,BORIGUMMA,KORAPUT,Odisha"
24.3733078,84.1929949,"Bara, Palamu, NH-98, Aurangabad, Road, Chhatarpur, Jharkhand 822113, India","TENPA,CHHATARPUR,PALAMU,Jharkhand"
24.3772562,84.19671380000001,"Bara, Palamu, NH-98, Aurangabad Road, Chhatarpur, Chhatarpur, Jharkhand 822113, India","TENUDIH,CHHATARPUR,PALAMU,Jharkhand"
21.9330376,85.8927223,"Teranti, Odisha 757039, India","TERANTI,SUKRULI,MAYURBHANJ,Odisha"
26.9363426,83.1099387,"Terhwa, Uttar Pradesh 272199, India","TERHWA,HARAIYA SATGHARWA,BALRAMPUR,Uttar Pradesh"
24.2775877,84.1023541,"Palamu, Jharkhand 822113, India","THEKAHI,NAWA BAZAR,PALAMU,Jharkhand"
20.0303691,84.2858121,"Tiangia, Odisha, India","TIANGIA,G.UDAYAGIRI,KANDHAMAL,Odisha"
24.613266,86.7831085,"Tilaiya, Jharkhand 814113, India","TILAYA,DEOGHAR,DEOGHAR,Jharkhand"
24.3225115,83.9134352,"Tisibar khurd, Jharkhand, India","TISIBAR KHURD,PANDU,PALAMU,Jharkhand"
27.4277007,82.1719438,"MDR 10E, near Zilla Panchayat Office, Balrampur, Uttar Pradesh 271201, India","TODHARI,BALRAMPUR,BALRAMPUR,Uttar Pradesh"
19.8007087,82.2121421,"Tohara, Odisha 764073, India","TOHARA,UMERKOTE,NABARANGPUR,Odisha"
26.757808,84.41726659999999,"Bairia Block, Bihar, India","TOLA ALPAHA,BAIRIA,PASHCHIM CHAMPARAN,Bihar"
19.4628738,82.1223977,"Torenga, Odisha 764072, India","TORENGA,UMERKOTE,NABARANGPUR,Odisha"
22.5474364,85.8025373,"Chaibasa, Jharkhand, India","TUIBIR,SADAR CHAIBASA,PASHCHIMI SINGHBHUM,Jharkhand"
24.3746769,84.1936203,"Chhatarpur, Jharkhand 822113, India","TUKTUKA,CHHATARPUR,PALAMU,Jharkhand"
19.0605489,83.8235787,"Gunupur, Rayagada, Odisha 765022, India","TURKANIGUDA,GUNUPUR,RAYAGADA,Odisha"
22.4112236,85.765722,"Jhinkpani, Jorapokhar, Jharkhand 833215, India","TUTUGUTU,JHINKPANI,PASHCHIMI SINGHBHUM,Jharkhand"
27.6783363,82.1903963,"Udaipur, Uttar Pradesh 271207, India","UDAIPUR,BALRAMPUR,BALRAMPUR,Uttar Pradesh"
27.574189,82.1384209,"Lalia, Uttar Pradesh 271861, India","UDAIPUR,HARAIYA SATGHARWA,BALRAMPUR,Uttar Pradesh"
24.3746769,84.1936203,"Chhatarpur, Jharkhand 822113, India","UDAYGARH,CHHATARPUR,PALAMU,Jharkhand"
19.6446114,82.8304019,"Umer, Odisha 766017, India","UMER,JAIPATNA,KALAHANDI,Odisha"
19.2825602,83.3455422,"Sankesu, Odisha 765017, India","UPPER SANKESU,RAYAGADA,RAYAGADA,Odisha"
26.6288187,79.2683715,"Veerpur, Uttar Pradesh 206128, India","VEERPUR KALAN,GAINSARI,BALRAMPUR,Uttar Pradesh"
27.5290248,82.4042298,"Orajhar, Uttar Pradesh 271210, India","VIJAIDEEH,TULSIPUR,BALRAMPUR,Uttar Pradesh"
27.5290248,82.4042298,"Orajhar, Uttar Pradesh 271210, India","VIJAIYAPUR,TULSIPUR,BALRAMPUR,Uttar Pradesh"
27.5181738,82.64614189999999,"Pachperwa, Uttar Pradesh 271206, India","VIJAY NAGAR,PACHPERWA,BALRAMPUR,Uttar Pradesh"
24.3733078,84.1929949,"Bara, Palamu, NH-98, Aurangabad, Road, Chhatarpur, Jharkhand 822113, India","VISAYPUR,CHHATARPUR,PALAMU,Jharkhand"
27.5290248,82.4042298,"Orajhar, Uttar Pradesh 271210, India","VISHUN PUR AIRHANIYA,TULSIPUR,BALRAMPUR,Uttar Pradesh"
26.3726481,85.4927026,"Runni Saidpur Madhya, Bihar, India","WAINA,RUNNI SAIDPUR,SITAMARHI,Bihar"
26.5631771,85.5191566,"Dumra, Bihar 843314, India","WARD NO-03,DUMRA,SITAMARHI,Bihar"
27.1221959,84.0722375,"Bagaha, Bihar, India","WARD NO-12,BAGAHA-I,PASHCHIM CHAMPARAN,Bihar"
27.1659296,84.32697110000001,"Ramnagar, Bihar 845106, India","WARD NO 06,RAMNAGAR,PASHCHIM CHAMPARAN,Bihar"
19.664737,82.2121421,"Umerkote, Odisha 764073, India","WARD NO.01,UMERKOTE,NABARANGPUR,Odisha"
18.8606126,82.5510469,"Jeypore, Odisha, India","WARD NO.1,JEYPORE,KORAPUT,Odisha"
18.8606126,82.5510469,"Jeypore, Odisha, India","WARD NO.12,JEYPORE,KORAPUT,Odisha"
20.1188751,84.3749996,"G. Udayagiri, Odisha 762100, India","WARD NO.13,G.UDAYAGIRI,KANDHAMAL,Odisha"
18.8606126,82.5510469,"Jeypore, Odisha, India","WARD NO.22,JEYPORE,KORAPUT,Odisha"
22.2507413,84.9959227,"Bisra, Odisha 770036, India","WARD10,BISRA,SUNDERGARH,Odisha"
27.5209048,82.1903963,"Budantpur, Uttar Pradesh, India","WUDANTPUR,TULSIPUR,BALRAMPUR,Uttar Pradesh"
24.3832652,86.7101965,"Jogidih, Jharkhand 814114, India","YOGIDIH,DEOGHAR,DEOGHAR,Jharkhand"
24.0465121,84.07684619999999,"Daltonganj, Jharkhand 822101, India","ZOUR,DALTONGANJ,PALAMU,Jharkhand"
19.8864697,82.0727726,"Raighar, Odisha 764074, India","MUNDIBEDA,RAIGHAR,NABARANGPUR,Odisha"
19.8864697,82.0727726,"Ganjpara, Raighar, Odisha 764074, India","HATIGAM,RAIGHAR,NABARANGPUR,Odisha"
25.8382696,81.37843509999999,"Janwamau, Uttar Pradesh 229408, India","JANWAMAU,KALAKANKER,PRATAPGARH,Uttar Pradesh"
25.9320852,81.7034734,"Lalganj Ajhara, Uttar Pradesh 230132, India","HULASGRAGH,LALGANJ,PRATAPGARH,Uttar Pradesh"
27.0346896,81.7800692,"Paraspur, Uttar Pradesh 271504, India","MADHAIPUR KURMI,PARASPUR,GONDA,Uttar Pradesh"
19.2950828,82.7232495,"Tentulikhunti, Odisha 764070, India","MERAI,TENTULIKHUNTI,NABARANGPUR,Odisha"
26.9579925,81.9840897,"Tarabganj, Uttar Pradesh 271403, India","PATHAR,TARABGANJ,GONDA,Uttar Pradesh"
26.9950378,82.4278765,"Patijia Khurd, Uttar Pradesh 271305, India","PATIJIYA KHURD,CHAPIA,GONDA,Uttar Pradesh"
26.6238447,84.75766999999999,"Ujjain Lohiyar, Bihar, India","UJJAIN LOHIAR,HARSIDDHI,PURBA CHAMPARAN,Bihar"
25.8869295,82.1849588,"Asuti, Uttar Pradesh 230134, India","CHARIYA,PATTI,PRATAPGARH,Uttar Pradesh"
25.1609641,82.1128727,"Gadurahi, Uttar Pradesh 212302, India","GENDURAHI,MEJA,ALLAHABAD,Uttar Pradesh"
26.7926731,82.47022439999999,"Harraiya, Uttar Pradesh 272155, India","HARAIYA JHUMMAN,ITIYATHOK,GONDA,Uttar Pradesh"
19.342644,82.5164831,"DEER PARK, Pappadahandi, Odisha 764071, India","JAMBOGUDA,PAPADAHANDI,NABARANGPUR,Odisha"
18.963375,82.6105228,"Kebidi, Odisha, India","KEBIDI,JEYPORE,KORAPUT,Odisha"
26.7013938,85.07555049999999,"Rampur North, Bihar 845418, India","KHODHA,CHIRAIYA,PURBA CHAMPARAN,Bihar"
19.664737,82.2121421,"Umerkote, Odisha 764073, India","LIMAGUDA,UMERKOTE,NABARANGPUR,Odisha"
26.5634243,84.6348321,"Rajepur, Bihar 845458, India","RAJEPUR CHAITA,PAKRIDAYAL,PURBA CHAMPARAN,Bihar"
25.2559785,83.5909332,"Labedaha, Bihar 821110, India","SEMARA LABEDAHA,MADHUBANI,PASHCHIM CHAMPARAN,Bihar"
25.6997833,81.6459744,"Gaura, Uttar Pradesh 230201, India","SILAUDHI,GAURA,PRATAPGARH,Uttar Pradesh"
25.8883345,81.55283039999999,"Pratappur Chergarh, Uttar Pradesh 230143, India","ANEHRA,RAMPUR-SANGRAMGARH,PRATAPGARH,Uttar Pradesh"
26.889529,81.1795729,"Daud Pur, Uttar Pradesh 225122, India","ASHAWAN DAUD PUR,HANDIA,ALLAHABAD,Uttar Pradesh"
19.2812042,82.265682,"BajragadaRoad, Odisha 764061, India","BAJRAGADA,KOSAGUMUDA,NABARANGPUR,Odisha"
28.2044412,79.05864849999999,"Wazirganj, Budaun, SH-43, Chandausi Badaun Road, Budaun, Budaun, Uttar Pradesh 243726, India","BEILIYA,WAZIRGANJ,GONDA,Uttar Pradesh"
26.4409294,85.6653206,"Nanpur, Bihar 843333, India","BELA BAHADURPUR,NANPUR,SITAMARHI,Bihar"
23.9268683,84.2568529,"Satbarwa, Jharkhand 822126, India","BOHITA,SATBARWA,PALAMU,Jharkhand"
19.3408585,82.5212896,"Pappadahandi, Odisha 764071, India","BORDEI,PAPADAHANDI,NABARANGPUR,Odisha"
26.606606,84.8193565,"Turkauliya, Bihar 845437, India","CHARGAHAN,TURKAULIA,PURBA CHAMPARAN,Bihar"
19.8864697,82.0727726,"Raighar, Odisha 764074, India","CHHATABEDA,RAIGHAR,NABARANGPUR,Odisha"
26.9988868,84.1026062,"Madhubani, Bihar 845104, India","CHIURAHI,MADHUBANI,PASHCHIM CHAMPARAN,Bihar"
26.8204063,85.61521859999999,"Dalakwa Dalki, Bihar 843330, India","DALAKWA DALKI,SONBARSA,SITAMARHI,Bihar"
26.7994224,84.6204403,"Majhaulia, Bihar 845454, India","DUDHA,MAJHAULIA,PASHCHIM CHAMPARAN,Bihar"
26.3726481,85.4927026,"Runni Saidpur Madhya, Bihar, India","GANGWARA,RUNNI SAIDPUR,SITAMARHI,Bihar"
21.513967,86.53249249999999,"Kaptipada, Odisha 757040, India","J.S.JAMDIHA,KAPTIPADA,MAYURBHANJ,Odisha"
19.0517161,82.5486131,"Borigumma, Odisha 764056, India","KANAGAM,BORIGUMMA,KORAPUT,Odisha"
25.8836068,82.01619029999999,"Khajurni, Uttar Pradesh, India","KHAJURNI,SADAR,PRATAPGARH,Uttar Pradesh"
26.0466278,81.6671995,"Sangipur, Uttar Pradesh 230139, India","KUMBHI AAEMA,SANGIPUR,PRATAPGARH,Uttar Pradesh"
27.1077812,84.58771829999999,"Lipni, Bihar 845306, India","LIPNI,MAINATAND,PASHCHIM CHAMPARAN,Bihar"
19.8864697,82.0727726,"Raighar, Odisha 764074, India","MARIPARA,RAIGHAR,NABARANGPUR,Odisha"
19.0456801,82.92124620000001,"Dasmanthpur, Odisha 764028, India","MUJANG,DASMANTPUR,KORAPUT,Odisha"
22.4112236,85.765722,"Jhinkpani, Jorapokhar, Jharkhand 833215, India","NAWAGAON,JHINKPANI,PASHCHIMI SINGHBHUM,Jharkhand"
21.513967,86.53249249999999,"Kaptipada, Odisha 757040, India","NOTO,KAPTIPADA,MAYURBHANJ,Odisha"
23.9268683,84.2568529,"Satbarwa, Jharkhand 822126, India","REWARATU,SATBARWA,PALAMU,Jharkhand"
26.7994224,84.6204403,"Majhaulia, Bihar 845454, India","RULHI NIZAMAT,MAJHAULIA,PASHCHIM CHAMPARAN,Bihar"
26.6400936,85.57632989999999,"Bathnaha, Bihar 843322, India","SAHIARA,BATHNAHA,SITAMARHI,Bihar"
19.6656947,82.2001466,"Umerkote, Odisha 764073, India","SANKUMARI,UMERKOTE,NABARANGPUR,Odisha"
25.9900135,82.1360026,"Magraura, Uttar Pradesh 230405, India","SARAI JMUAARI,MANGRAURA,PRATAPGARH,Uttar Pradesh"
26.6139862,84.4959985,"Shyampur Kotaraha, Bihar, India","SHYAMPUR KOTRAHA,NAUTAN,PASHCHIM CHAMPARAN,Bihar"
26.0466278,81.6671995,"Sangipur, Uttar Pradesh 230139, India","SUJAKHAR,SANGIPUR,PRATAPGARH,Uttar Pradesh"
19.4735726,82.586198,"Tangarapala, Odisha 764071, India","TANGRAPALA,PAPADAHANDI,NABARANGPUR,Odisha"
19.2760693,82.5267009,"Taragam, Odisha, India","TARAGAM,UMERKOTE,NABARANGPUR,Odisha"
19.2760693,82.5267009,"Taragam, Odisha, India","TARAGAM,KOSAGUMUDA,NABARANGPUR,Odisha"
25.8883345,81.55283039999999,"Pratappur Chergarh, Uttar Pradesh 230143, India","AASHOG,RAMPUR-SANGRAMGARH,PRATAPGARH,Uttar Pradesh"
25.1730328,82.1183157,"Akhari Shahpur, Uttar Pradesh 212302, India","AKHARISHAH PUR,MEJA,ALLAHABAD,Uttar Pradesh"
18.5433678,82.7522528,"Koraput, Odisha 764037, India","ANDRUGUDA,NANDAPUR,KORAPUT,Odisha"
26.0311503,81.8716058,"Sandwa Chandika, Uttar Pradesh 230503, India","ANTU DEHAT,SADWA-CHANDRIKA,PRATAPGARH,Uttar Pradesh"
25.9900135,82.1360026,"Magraura, Uttar Pradesh 230405, India","AORANGABAD,MANGRAURA,PRATAPGARH,Uttar Pradesh"
24.3746769,84.1936203,"Chhatarpur, Jharkhand 822113, India","ARAR,CHHATARPUR,PALAMU,Jharkhand"
26.0476592,81.66562239999999,"Sangipur, Uttar Pradesh 230139, India","ASANWA,SANGIPUR,PRATAPGARH,Uttar Pradesh"
25.2816904,81.77665139999999,"Jasra, Uttar Pradesh 212107, India","ASHANWA,JASARA,ALLAHABAD,Uttar Pradesh"
19.3559687,82.6780311,"Timanpur, Odisha 764049, India","BAHAR MENGRA,TENTULIKHUNTI,NABARANGPUR,Odisha"
21.2115989,83.3816099,"Baraguda, Odisha, India","BARAGUDA,JHARIGAM,Odisha"
27.080793,82.472568,"Babhanjot, Uttar Pradesh 271312, India","BASTI KHAS,BABHANJOT,GONDA,Uttar Pradesh"
26.8333401,85.6631467,"Bathuara Rd, Bihar, India","BATHUARA,PARIHAR,SITAMARHI,Bihar"
25.6431898,81.56855449999999,"Bahadurpur, Uttar Pradesh 230201, India","BHADURPUR,KUNDA,PRATAPGARH,Uttar Pradesh"
26.8232476,85.5412645,"Bhaluaha, Bihar, India","BHALUAHA,SONBARSA,SITAMARHI,Bihar"
26.7994224,84.6204403,"Majhaulia, Bihar 845454, India","BHANA CHAK,MAJHAULIA,PASHCHIM CHAMPARAN,Bihar"
21.8837267,86.9041685,"Mohanpur, Odisha 757018, India","BHOLGHATI,MORADA,MAYURBHANJ,Odisha"
19.8864697,82.0727726,"Raighar, Odisha 764074, India","BINAYAPUR,RAIGHAR,NABARANGPUR,Odisha"
19.8864697,82.0727726,"Raighar, Odisha 764074, India","BIRIPUR,RAIGHAR,NABARANGPUR,Odisha"
26.454384,85.03633719999999,"Chak Bara, Bihar 845412, India","CHAK BARA,CHAKIA,PURBA CHAMPARAN,Bihar"
27.1683844,84.1606601,"Chamwalia, Bihar 845101, India","CHAMWALIA,BAGAHA-II (SIDHAW),PASHCHIM CHAMPARAN,Bihar"
19.1404296,82.318057,"Kotapad, Odisha 764058, India","CHHATARLA(CHOTORLA),KOTPAD,KORAPUT,Odisha"
18.813487,82.71233269999999,"Koraput, Odisha, India","DAKARA,KORAPUT,KORAPUT,Odisha"
24.0035785,84.55301279999999,"Duwarika, Jharkhand, India","DUARIKA,PANKI,PALAMU,Jharkhand"
25.1869545,81.6173213,"Shankargarh, Uttar Pradesh 212108, India","GARAIYA LONI PAR,SHANKAR GARH,ALLAHABAD,Uttar Pradesh"
18.9220376,82.3912892,"Kundra, Odisha 764002, India","GORAHANDI,KUNDRA,KORAPUT,Odisha"
24.0357114,84.47763719999999,"Panki, Jharkhand 822122, India","HOTAI,PANKI,PALAMU,Jharkhand"
26.7971228,85.5753604,"Jainagar, Bihar 843330, India","JAINAGAR,SONBARSA,SITAMARHI,Bihar"
19.0517161,82.5486131,"Borigumma, Odisha 764056, India","JANIGUDA,BORIGUMMA,KORAPUT,Odisha"
19.0517161,82.5486131,"Borigumma, Odisha 764056, India","JANNIGUDA,BORIGUMMA,KORAPUT,Odisha"
18.3826868,82.7805534,"Jeera, Odisha, India","JEERA,NANDAPUR,KORAPUT,Odisha"
19.3408585,82.5212896,"Pappadahandi, Odisha 764071, India","JHADKUSUMI,PAPADAHANDI,NABARANGPUR,Odisha"
22.0700996,86.6485137,"Kuliana, Odisha 757030, India","JHINEI,KULIANA,MAYURBHANJ,Odisha"
25.1901533,81.6267982,"Jorwat, Uttar Pradesh 212108, India","JORWAT,SHANKAR GARH,ALLAHABAD,Uttar Pradesh"
24.3746769,84.1936203,"Chhatarpur, Jharkhand 822113, India","KACHANPUR,CHHATARPUR,PALAMU,Jharkhand"
18.8886134,82.5131717,"Kankadahandi, Odisha, India","KANKADAHANDI,JEYPORE,KORAPUT,Odisha"
21.9681522,86.0758979,"Jashipur, Odisha 757034, India","KAPANDA,JASHIPUR,MAYURBHANJ,Odisha"
19.664737,82.2121421,"Umerkote, Odisha 764073, India","KARAGAM,UMERKOTE,NABARANGPUR,Odisha"
19.664737,82.2121421,"Umerkote, Odisha 764073, India","KARLABEDA,UMERKOTE,NABARANGPUR,Odisha"
22.452488,85.9443553,"Tantnagar, Jharkhand 833204, India","KATHBHARI,TANTNAGAR,PASHCHIMI SINGHBHUM,Jharkhand"
18.751105,82.4332952,"Boipariguda, Odisha 764043, India","KHEMABEDA,BOIPARIGUDA,KORAPUT,Odisha"
26.0416681,81.1058159,"Khodaypur, Uttar Pradesh, India","KHODAY PUR,PHOOLPUR,ALLAHABAD,Uttar Pradesh"
25.144565,82.107523,"Meja Tehsil, Uttar Pradesh 212302, India","KHUNTA,MEJA,ALLAHABAD,Uttar Pradesh"
26.5956404,84.65118199999999,"Kiritpur Tola Inglish, Bihar 845458, India","KIRITPUR TOLA INGLISH,HARSIDDHI,PURBA CHAMPARAN,Bihar"
19.664737,82.2121421,"Umerkote, Odisha 764073, India","KOPENA,UMERKOTE,NABARANGPUR,Odisha"
19.1404296,82.318057,"Kotapad, Odisha 764058, India","KUHUDIGAM,KOTPAD,KORAPUT,Odisha"
26.7994224,84.6204403,"Majhaulia, Bihar 845454, India","KURIA,MAJHAULIA,PASHCHIM CHAMPARAN,Bihar"
27.0328898,81.7867424,"Paraspur, Uttar Pradesh 271504, India","KURIYAWN,PARASPUR,GONDA,Uttar Pradesh"
24.3746769,84.1936203,"Chhatarpur, Jharkhand 822113, India","KURKUTA,CHHATARPUR,PALAMU,Jharkhand"
19.5262897,82.50234640000001,"Lodi, Odisha, India","LODI,PAPADAHANDI,NABARANGPUR,Odisha"
26.3316776,85.19329049999999,"Mohammadpur Majhaulia, Bihar, India","MAHAMMADPUR MAJHAULIA,MEHSI,PURBA CHAMPARAN,Bihar"
24.202349,84.1778016,"Patan, Jharkhand 822123, India","MAHULIYA,PATAN,PALAMU,Jharkhand"
25.5510396,82.088374,"Phoolpur, Uttar Pradesh 212402, India","MAILVAN,PHOOLPUR,ALLAHABAD,Uttar Pradesh"
18.7111699,82.85077799999999,"Similiguda, Odisha 764036, India","MALI MARLA,SEMILIGUDA,KORAPUT,Odisha"
27.1001195,83.96648859999999,"Majharia, Bihar 274802, India","MANJHARIA,BAGAHA-I,PASHCHIM CHAMPARAN,Bihar"
25.5874721,81.6661726,"kaurihar, Uttar Pradesh 212411, India","MANSURA  BAD,KAURIHAR- I,ALLAHABAD,Uttar Pradesh"
18.751105,82.4332952,"Boipariguda, Odisha 764043, India","MATHPADA,BOIPARIGUDA,KORAPUT,Odisha"
27.275167,82.0761215,"Mohanpur Asdha, Uttar Pradesh, India","MOHANPUR ASADHA,ITIYATHOK,GONDA,Uttar Pradesh"
18.9913771,82.4265217,"Mundipodar, Odisha 764002, India","MUNDIPODAR,KOTPAD,KORAPUT,Odisha"
26.8477011,85.5785157,"Sonbarsa, Bihar, India","MURHA DIH,SONBARSA,SITAMARHI,Bihar"
19.8864697,82.0727726,"Raighar, Odisha 764074, India","NAKTISEMADA,RAIGHAR,NABARANGPUR,Odisha"
27.1324146,84.05938739999999,"naraynapur, Bagaha, Bihar 845105, India","NARWAL,BAGAHA-II (SIDHAW),PASHCHIM CHAMPARAN,Bihar"
19.1404296,82.318057,"Kotapad, Odisha 764058, India","NEHURUPALI,KOTPAD,KORAPUT,Odisha"
27.0230331,81.88116280000001,"Nirpur Khyala, Uttar Pradesh 271401, India","NIRPUR KHAYALA,PARASPUR,GONDA,Uttar Pradesh"
21.7399401,86.8431671,"Betnoti, Odisha 757025, India","NUAGAN,BETNOTI,MAYURBHANJ,Odisha"
24.3733078,84.1929949,"Bara, Palamu, NH-98, Aurangabad, Road, Chhatarpur, Jharkhand 822113, India","OKARAHA,CHHATARPUR,PALAMU,Jharkhand"
26.649043,84.7237117,"Near Champaran Cold Storage, Harsidhi Jadavpur Road, Vill+ PO - Harsidhi, Harsidhi Pakariya, Bihar 845422, India","OLHA,HARSIDDHI,PURBA CHAMPARAN,Bihar"
24.8577046,81.9780262,"Paitiha, Uttar Pradesh, India","PAITIHA,KORAON,ALLAHABAD,Uttar Pradesh"
24.0894321,84.0524237,"Parsiya, Jharkhand 822110, India","PARSIYA,PANKI,PALAMU,Jharkhand"
19.8864697,82.0727726,"Raighar, Odisha 764074, India","PHUTANADA,RAIGHAR,NABARANGPUR,Odisha"
26.534509,85.18551819999999,"Pipra Karimdad, Bihar, India","PIPRA KARIMDAD-11,PHENHARA,PURBA CHAMPARAN,Bihar"
26.4883937,84.8333322,"Pokhara, Bihar, India","POKHARA,KOTWA,PURBA CHAMPARAN,Bihar"
27.2898947,82.0270906,"Itia Thok, Uttar Pradesh 271202, India","POORE MUSADDI,ITIYATHOK,GONDA,Uttar Pradesh"
25.8583712,81.49517159999999,"Sangramgarh, Uttar Pradesh 230141, India","PURE JANAI,RAMPUR-SANGRAMGARH,PRATAPGARH,Uttar Pradesh"
25.4229168,82.278697,"Dhanupur, Uttar Pradesh 221502, India","SADRE PUR,DHANUPUR,ALLAHABAD,Uttar Pradesh"
18.5685216,82.9756933,"Pottangi, Odisha 764039, India","SANKAR,POTTANGI,KORAPUT,Odisha"
25.1907691,81.6117277,"Shankargarh, Uttar Pradesh 212108, India","SEEDH TICKAT,SHANKAR GARH,ALLAHABAD,Uttar Pradesh"
19.0456801,82.92124620000001,"Dasmanthpur, Odisha 764028, India","SEMBI,DASMANTPUR,KORAPUT,Odisha"
26.8651447,84.34763210000001,"Jogapatti, Bihar 845452, India","SEMRI BHAWANIPUR,JOGAPATTI,PASHCHIM CHAMPARAN,Bihar"
25.4229168,82.278697,"Dhanupur, Uttar Pradesh 221502, India","SHAHI PURA,DHANUPUR,ALLAHABAD,Uttar Pradesh"
25.7983457,81.3641024,"Alapur - Kalakankar Rd, Allahabad, Uttar Pradesh 229408, India","SHEIKHPUR DHANAPUR,KALAKANKER,PRATAPGARH,Uttar Pradesh"
24.0506712,84.9329741,"Simaria Khurd, Jharkhand 825103, India","SIAMRIA KHURD,SIMARIA,CHATRA,Jharkhand"
25.5510396,82.088374,"Phoolpur, Uttar Pradesh 212402, India","SILOKHARA,PHOOLPUR,ALLAHABAD,Uttar Pradesh"
25.0981638,82.2624037,"Manda, Uttar Pradesh 212104, India","SORAUTHI,MANDA,ALLAHABAD,Uttar Pradesh"
19.664737,82.2121421,"Umerkote, Odisha 764073, India","SUKIGAM,UMERKOTE,NABARANGPUR,Odisha"
19.0456801,82.92124620000001,"Dasmanthpur, Odisha 764028, India","TAMILI,DASMANTPUR,KORAPUT,Odisha"
19.4628738,82.1223977,"Torenga, Odisha 764072, India","TORENGA,UMERKOTE,NABARANGPUR,Odisha"
25.9339664,81.7010944,"Salon Varanashi Gang Marg, Lalganj Ajhara, Uttar Pradesh 230132, India","VASUPUR,LALGANJ,PRATAPGARH,Uttar Pradesh"
25.418576,82.299112,"Village & Post Jagadishpur ,Dhanupur, Handia-Shukulpur Road, Mamarkha, Uttar Pradesh 221502, India","WAIJPUR,DHANUPUR,ALLAHABAD,Uttar Pradesh"
18.7111699,82.85077799999999,"Similiguda, Odisha 764036, India","WARD NO.17,SEMILIGUDA,KORAPUT,Odisha"
26.0466278,81.6671995,"Sangipur, Uttar Pradesh 230139, India","AAAORIPUR,SANGIPUR,PRATAPGARH,Uttar Pradesh"
24.0357114,84.47763719999999,"Panki, Jharkhand 822122, India","ABUN,PANKI,PALAMU,Jharkhand"
25.0744885,82.06522869999999,"Akbar Shahpur, Uttar Pradesh 212302, India","AKABAR SHAH PUR,KORAON,ALLAHABAD,Uttar Pradesh"
19.1576355,82.4481944,"Amta, Odisha, India","AMTA (AMATA),BORIGUMMA,KORAPUT,Odisha"
18.8684931,82.5267009,"Ananta, Odisha 764005, India","ANANTA,JEYPORE,KORAPUT,Odisha"
25.8873297,81.4041474,"Andaripur, Uttar Pradesh 230141, India","ANDHRIPUR,KALAKANKER,Uttar Pradesh"
26.9084727,82.1292005,"Anbhula, Uttar Pradesh, India","ANMULA,WAZIRGANJ,GONDA,Uttar Pradesh"
24.294021,84.636901,"Pratappur, Jharkhand, Partabpura, Jharkhand 825404, India","ANNGADA,PRATAPPUR,CHATRA,Jharkhand"
24.0506712,84.9329741,"Simaria Khurd, Jharkhand 825103, India","ARSEL,SIMARIA,CHATRA,Jharkhand"
25.9641225,82.3099154,"Aspur devsara, Patti, Uttar Pradesh 230124, India","AURAUN,AASPUR-DEOSARA,PRATAPGARH,Uttar Pradesh"
25.6980509,81.6158382,"Bihar, Uttar Pradesh 230201, India","AUTARPUR,BIHAR,PRATAPGARH,Uttar Pradesh"
27.2233162,82.1507969,"Bachhaipur Rudragarh Nousi, Dhaneypur, Uttar Pradesh 271602, India","BACHAIPUR,MUJEHNA,GONDA,Uttar Pradesh"
18.9205415,82.4996398,"Badajiuna, Odisha 764002, India","BADAJIUNA,JEYPORE,KORAPUT,Odisha"
